;opis;dzielnica;pokoje;cena;metraz;cena_za_metr;link;data;ulica;lokator_ulica_dzielnica;geo_location;point;latitude;longitude;altitude;geometry
1;Mieszkanie Kraków Biały Prądnik - zarezerowane;Kraków , Prądnik Biały;3 pokoje;395000.0;62.5;6320.0;https://www.otodom.pl/oferta/mieszkanie-krakow-bialy-pradnik-zarezerowane-ID44x92.html#de3f47c1fe;2020-02-19 16:57:39.280528;Prądnika;Kraków , Prądnik Biały, Prądnika;Prądnik Biały, Kraków, województwo małopolskie, Polska;(50.0955225, 19.9283169, 0.0);50.0955225;19.9283169;0.0;POINT (566377.4070532473 247998.4942823648)
2;2-pokoje do odświeżenia ! Do Wilgi;Kraków , Łagiewniki-Borek Fałęcki, Cegielniana;2 pokoje;385000.0;40.0;9625.0;https://www.otodom.pl/oferta/2-pokoje-do-odswiezenia-do-wilgi-ID43M0O.html#de3f47c1fe;2020-02-19 16:57:39.280528;Wilgi;Kraków , Łagiewniki-Borek Fałęcki, Cegielniana, Wilgi;Park rzeczny Wilgi, Osiedle Cegielniana, Łagiewniki-Borek Fałęcki, Kraków, województwo małopolskie, Polska;(50.02716505, 19.927239286966902, 0.0);50.02716505;19.927239286966902;0.0;POINT (566394.6413695168 240399.6172999749)
3;Mieszk2pok z ogródkiem 37m2.Myśliwska-Mały Płaszów;Kraków , Podgórze, Płaszów;2 pokoje;383000.0;37.0;10351.0;https://www.otodom.pl/oferta/mieszk2pok-z-ogrodkiem-37m2-mysliwska-maly-plaszow-ID44LJl.html#de3f47c1fe;2020-02-19 16:57:39.280528;Płaszów;Kraków , Podgórze, Płaszów, Płaszów;Kraków Płaszów, Peron 2 - modernizacja, Płaszów, Podgórze, Kraków, województwo małopolskie, 30-902, Polska;(50.0345327, 19.9754459, 0.0);50.0345327;19.9754459;0.0;POINT (569835.7166101226 241262.450246132)
7;Pilnie sprzedam 3 pokojowe. Bohaterów Września;Kraków , Nowa Huta;3 pokoje;365000.0;54.95;6642.0;https://www.otodom.pl/oferta/pilnie-sprzedam-3-pokojowe-bohaterow-wrzesnia-ID44LHV.html#de3f47c1fe;2020-02-19 16:57:39.280528;Września;Kraków , Nowa Huta, Września;Urząd Skarbowy Kraków - Nowa Huta, 80, Osiedle Bohaterów Września, Mistrzejowice, Kraków, województwo małopolskie, 31-621, Polska;(50.1044948, 20.0116364, 0.0);50.1044948;20.0116364;0.0;POINT (572321.3837846142 249073.1417173371)
22;2 pokoje, 50,5 m2, os. Słoneczne;Kraków , Nowa Huta;2 pokoje;369000.0;50.0;7380.0;https://www.otodom.pl/oferta/2-pokoje-50-5-m2-os-sloneczne-ID44LFq.html#de3f47c1fe;2020-02-19 16:57:39.281525;Słoneczne;Kraków , Nowa Huta, Słoneczne;Osiedle Słoneczne, Nowa Huta, Delegatura Kraków-Nowa Huta, Kraków, województwo małopolskie, 31-956, Polska;(50.0776057, 20.0420898, 0.0);50.0776057;20.0420898;0.0;POINT (574540.1416298144 246114.3636779059)
24;Luksusowy Apartament - 59m2 - Prądnik Czerwony;Kraków , Prądnik Czerwony;3 pokoje;790000.0;59.0;13390.0;https://www.otodom.pl/oferta/luksusowy-apartament-59m2-pradnik-czerwony-ID44LFc.html#de3f47c1fe;2020-02-19 16:57:39.281525;Prądnika;Kraków , Prądnik Czerwony, Prądnika;Enklawa Prądnika, Prądnik Czerwony, Kraków, województwo małopolskie, Polska;(50.0933468, 19.98679355896063, 0.0);50.0933468;19.98679355896063;0.0;POINT (570561.7860403393 247810.2744327188)
28;Mieszkanie 70,40m², Kraków, Wola Duchacka Zachód;Kraków , Podgórze Duchackie, Wola Duchacka;4 pokoje;540000.0;70.4;7670.0;https://www.otodom.pl/oferta/mieszkanie-70-40m-krakow-wola-duchacka-zachod-ID44BlY.html#bcc2421ba9;2020-02-19 16:57:40.182439;Duchacka;Kraków , Podgórze Duchackie, Wola Duchacka, Duchacka;Kraków Bonarka, Kładka pieszo-rowerowa, Wola Duchacka, Podgórze, Delegatura Kraków-Podgórze, Kraków, województwo małopolskie, 30-416, Polska;(50.0293189, 19.9462275, 0.0);50.0293189;19.9462275;0.0;POINT (567751.2342442736 240656.0522081703)
29;Mieszkanie z piwnicą okolica Galerii Krakowskiej;Kraków , Stare Miasto;2 pokoje;360000.0;37.0;9730.0;https://www.otodom.pl/oferta/mieszkanie-z-piwnica-okolica-galerii-krakowskiej-ID44z9d.html#bcc2421ba9;2020-02-19 16:57:40.182439;Krakowskich;Kraków , Stare Miasto, Krakowskich;Pomnik zajść krakowskich 1936, Skwer im. Andrzeja Wajdy, Stare Miasto, Kraków, województwo małopolskie, 31-023, Polska;(50.0648716, 19.9433911, 0.0);50.0648716;19.9433911;0.0;POINT (567498.2653964941 244605.1497884048)
36;Obrońca Krzyża 57 m2;Kraków , małopolskie;3 pokoje;379000.0;57.0;6649.0;https://www.otodom.pl/oferta/obronca-krzyza-57-m2-ID44FY1.html#bcc2421ba9;2020-02-19 16:57:40.182439;Krzywa;Kraków , małopolskie, Krzywa;Krzywa, Kleparz, Stare Miasto, Kraków, województwo małopolskie, 31-151, Polska;(50.0673124, 19.9404533, 0.0);50.0673124;19.9404533;0.0;POINT (567284.6585443659 244873.7945570294)
37;PRZY Dworku Białoprądnickim , 52m z balkonem!;Kraków , Prądnik Biały;2 pokoje;420000.0;52.0;8077.0;https://www.otodom.pl/oferta/przy-dworku-bialopradnickim-52m-z-balkonem-ID44LEJ.html#bcc2421ba9;2020-02-19 16:57:40.182439;Białoprądnicka;Kraków , Prądnik Biały, Białoprądnicka;Białoprądnicka, Prądnik Biały, Kraków, województwo małopolskie, 31-221, Polska;(50.0952644, 19.9351654, 0.0);50.0952644;19.9351654;0.0;POINT (566867.4466839134 247975.9155537104)
41;Stare Miasto obok Plant po remoncie + parking;Kraków , Stare Miasto;2 pokoje;649999.0;49.09;13241.0;https://www.otodom.pl/oferta/stare-miasto-obok-plant-po-remoncie-parking-ID44Jbu.html#bcc2421ba9;2020-02-19 16:57:40.182439;Starego;Kraków , Stare Miasto, Starego;Sarkofag Zygmunta I Starego, 1, Dziedziniec Batorego, Stare Miasto, Kraków, województwo małopolskie, 31-001, Polska;(50.0547963, 19.9356012, 0.0);50.0547963;19.9356012;0.0;POINT (566954.9399643488 243478.2743801456)
48;Mieszkanie idealne na inwestycje ul.Białoprądnicka;Kraków , Prądnik Biały;2 pokoje;329900.0;47.8;6902.0;https://www.otodom.pl/oferta/mieszkanie-idealne-na-inwestycje-ul-bialopradnicka-ID44LBx.html#bcc2421ba9;2020-02-19 16:57:40.183436;Białoprądnicka;Kraków , Prądnik Biały, Białoprądnicka;Białoprądnicka, Prądnik Biały, Kraków, województwo małopolskie, 31-221, Polska;(50.0952644, 19.9351654, 0.0);50.0952644;19.9351654;0.0;POINT (566867.4466839134 247975.9155537104)
56;Mieszkanie - Kraków Grzegórzki;Kraków , Grzegórzki;2 pokoje;445055.0;44.51;9999.0;https://www.otodom.pl/oferta/mieszkanie-krakow-grzegorzki-ID44DxT.html#e7b1ebfb0e;2020-02-19 16:57:40.984976;Grzegórzecka;Kraków , Grzegórzki, Grzegórzecka;Grzegórzecka, Grzegórzki, Kraków, województwo małopolskie, 31-539, Polska;(50.0567623, 19.9611326, 0.0);50.0567623;19.9611326;0.0;POINT (568779.2173764205 243719.9819600955)
62;Mieszkanie 70m - BEZ POŚREDNIKÓW - ul. Torfowa;Kraków , Łagiewniki-Borek Fałęcki;3 pokoje;519000.0;70.0;7414.0;https://www.otodom.pl/oferta/mieszkanie-70m-bez-posrednikow-ul-torfowa-ID443s0.html#e7b1ebfb0e;2020-02-19 16:57:40.984976;Torfowa;Kraków , Łagiewniki-Borek Fałęcki, Torfowa;Torfowa, Kobierzyn, Łagiewniki-Borek Fałęcki, Delegatura Kraków-Podgórze, Kraków, województwo małopolskie, 30-384, Polska;(50.0174968, 19.9091415, 0.0);50.0174968;19.9091415;0.0;POINT (565111.8423839355 239309.0829508258)
63;Luksusowy apartament Stare Miasto, Lubicz, Bosacka;Kraków , Stare Miasto;3 pokoje;799000.0;54.0;14796.0;https://www.otodom.pl/oferta/luksusowy-apartament-stare-miasto-lubicz-bosacka-ID44LuB.html#e7b1ebfb0e;2020-02-19 16:57:40.984976;Starego;Kraków , Stare Miasto, Starego;Sarkofag Zygmunta I Starego, 1, Dziedziniec Batorego, Stare Miasto, Kraków, województwo małopolskie, 31-001, Polska;(50.0547963, 19.9356012, 0.0);50.0547963;19.9356012;0.0;POINT (566954.9399643488 243478.2743801456)
65;Os. Na Lotnisku Nowa Huta Bieńczyce 2 pokoje;Kraków , Bieńczyce;2 pokoje;285000.0;35.83;7954.0;https://www.otodom.pl/oferta/os-na-lotnisku-nowa-huta-bienczyce-2-pokoje-ID44J4v.html#e7b1ebfb0e;2020-02-19 16:57:40.984976;Lotnisko;Kraków , Bieńczyce, Lotnisko;Lądowisko Rakowice-Czyżyny, Stefana Jurczaka, Czyżyny, Kraków, województwo małopolskie, 31-634, Polska;(50.0846957, 19.9886787, 0.0);50.0846957;19.9886787;0.0;POINT (570709.3112874664 246850.4873105474)
73;Mieszkanie - Kraków Opatkowice;Kraków , Swoszowice, Opatkowice;2 pokoje;430000.0;54.66;7867.0;https://www.otodom.pl/oferta/mieszkanie-krakow-opatkowice-ID44Lt1.html#e7b1ebfb0e;2020-02-19 16:57:40.984976;Opatkowicka;Kraków , Swoszowice, Opatkowice, Opatkowicka;Opatkowicka, Opatkowice, Swoszowice, Kraków, województwo małopolskie, 30-499, Polska;(49.9836953, 19.9160164, 0.0);49.9836953;19.9160164;0.0;POINT (565650.2256588747 235558.0975218732)
74;4 pokojowe po generalnym remoncie os.Strusia;Kraków , Bieńczyce;4 pokoje;410000.0;54.0;7593.0;https://www.otodom.pl/oferta/4-pokojowe-po-generalnym-remoncie-os-strusia-ID43TMr.html#e7b1ebfb0e;2020-02-19 16:57:40.984976;Strusia;Kraków , Bieńczyce, Strusia;Osiedle Józefa Strusia, Bieńczyce, Kraków, województwo małopolskie, Polska;(50.08848715, 20.009869196375526, 0.0);50.08848715;20.009869196375526;0.0;POINT (572219.1093478991 247292.180990384)
75;2 pokojowe 52m2 przy ul. Łokietka, Krowodrza;Kraków , Krowodrza;2 pokoje;546000.0;52.0;10500.0;https://www.otodom.pl/oferta/2-pokojowe-52m2-przy-ul-lokietka-krowodrza-ID44qKJ.html#e7b1ebfb0e;2020-02-19 16:57:40.984976;Łokietka;Kraków , Krowodrza, Łokietka;Łokietka, Władysława Łokietka, Azory, Prądnik Biały, Kraków, województwo małopolskie, 31-279, Polska;(50.085377, 19.9235123, 0.0);50.085377;19.9235123;0.0;POINT (566047.8126358264 246866.5586777506)
76;Rydlówka: 3 pokoje, balkon, winda - do wejścia!;Kraków , Podgórze;3 pokoje;589000.0;46.16;12760.0;https://www.otodom.pl/oferta/rydlowka-3-pokoje-balkon-winda-do-wejscia-ID44A8h.html#e7b1ebfb0e;2020-02-19 16:57:40.984976;Rydlówka;Kraków , Podgórze, Rydlówka;Rydlówka, Mateczny, Podgórze, Delegatura Kraków-Podgórze, Kraków, województwo małopolskie, 30-415, Polska;(50.0352782, 19.9349524, 0.0);50.0352782;19.9349524;0.0;POINT (566935.6490624668 241308.2663329504)
77;Wielicka Park: wysoki standard, 2 balkony, garaż;Kraków , Podgórze, Płaszów;4 pokoje;760000.0;81.0;9383.0;https://www.otodom.pl/oferta/wielicka-park-wysoki-standard-2-balkony-garaz-ID44G8A.html#e7b1ebfb0e;2020-02-19 16:57:40.984976;Wielicka;Kraków , Podgórze, Płaszów, Wielicka;Wielicka, Prokocim, Podgórze, Kraków, województwo małopolskie, 30-803, Polska;(50.0267461, 19.9769448, 0.0);50.0267461;19.9769448;0.0;POINT (569954.337260869 240398.3789583798)
79;mieszkanie przy ul. Filipowicza na Kurdwanowie;Kraków , Podgórze Duchackie, Kurdwanów;3 pokoje;428000.0;57.0;7509.0;https://www.otodom.pl/oferta/mieszkanie-przy-ul-filipowicza-na-kurdwanowie-ID444jF.html#e7b1ebfb0e;2020-02-19 16:57:40.984976;Filipowicza;Kraków , Podgórze Duchackie, Kurdwanów, Filipowicza;Generała Juliana Filipowicza, Kurdwanów, Podgórze Duchackie, Delegatura Kraków-Podgórze, Kraków, województwo małopolskie, 30-613, Polska;(50.0110906, 19.9454873, 0.0);50.0110906;19.9454873;0.0;POINT (567723.857332106 238629.3248540154)
110;2-pokojowe z balkonem i garażem ul. Marchołta;Kraków , Prądnik Czerwony;2 pokoje;430000.0;42.2;10190.0;https://www.otodom.pl/oferta/2-pokojowe-z-balkonem-i-garazem-ul-marcholta-ID44HHY.html#bcc2421ba9;2020-02-19 16:58:56.722045;Marchołta;Kraków , Prądnik Czerwony, Marchołta;Marchołta, Śródmieście, Prądnik Czerwony, Kraków, województwo małopolskie, 31-417, Polska;(50.0916178, 19.9795496, 0.0);50.0916178;19.9795496;0.0;POINT (570046.3280260074 247611.2770596556)
