;opis;dzielnica;pokoje;cena;metraz;cena_za_metr;link;data;ulica;lokator_ulica_dzielnica;geo_location;point;latitude;longitude;altitude;geometry
2;Sprzedam 30m2, Krowodrza, ul. Żabiniec;Kraków , Krowodrza;1 pokój;315000.0;30.0;10500.0;https://www.otodom.pl/oferta/sprzedam-30m2-krowodrza-ul-zabiniec-ID4405z.html#de3f47c1fe;2020-02-10 18:43:57.525738;Żabiniec;Kraków, Kraków , Krowodrza, Żabiniec;Żabiniec, Prądnik Biały, Kraków, województwo małopolskie, 31-200, Polska;(50.0851745, 19.9473248, 0.0);50.0851745;19.9473248;0.0;POINT (567751.0951210554 246865.3778822608)
4;os Szkolne 2 pok Gotowe do zamieszkania 7500zł/m2;Kraków , Nowa Huta;2 pokoje;390000.0;52.0;7500.0;https://www.otodom.pl/oferta/os-szkolne-2-pok-gotowe-do-zamieszkania-7500zl-m2-ID44CHR.html#de3f47c1fe;2020-02-10 18:43:57.525738;Szkolne;Kraków, Kraków , Nowa Huta, Szkolne;Osiedle Szkolne, Osiedle Na Skarpie, Nowa Huta, Kraków, województwo małopolskie, Polska;(50.0774958, 20.0482373, 0.0);50.0774958;20.0482373;0.0;POINT (574980.0319449959 246108.3005765826)
11;Nowa kawalerka - Centrum, UEK, Rakowicka;Kraków , Stare Miasto;1 pokój;310000.0;26.62;11645.0;https://www.otodom.pl/oferta/nowa-kawalerka-centrum-uek-rakowicka-ID44CGg.html#de3f47c1fe;2020-02-10 18:43:57.526735;Rakowicka;Kraków, Kraków , Stare Miasto, Rakowicka;Rakowicka, Warszawskie, Grzegórzki, Kraków, województwo małopolskie, 31-511, Polska;(50.068229, 19.9525984, 0.0);50.068229;19.9525984;0.0;POINT (568152.2658953031 244986.6823723251)
14;Mieszkanie, 68,50 m², Kraków;Kraków , Mistrzejowice;3 pokoje;640000.0;68.5;9343.0;https://www.otodom.pl/oferta/mieszkanie-68-50-m-krakow-ID44CF9.html#de3f47c1fe;2020-02-10 18:43:57.526735;"""Kraków""";"Kraków, Kraków , Mistrzejowice, ""Kraków""";Lądowisko Rakowice-Czyżyny, Stefana Jurczaka, Czyżyny, Kraków, województwo małopolskie, 31-634, Polska;(50.0846957, 19.9886787, 0.0);50.0846957;19.9886787;0.0;POINT (570709.3112874664 246850.4873105474)
15;Mieszkanie, 34,20 m², Kraków;Kraków , Wzgórza Krzesławickie;1 pokój;280000.0;34.2;8187.0;https://www.otodom.pl/oferta/mieszkanie-34-20-m-krakow-ID44CF7.html#de3f47c1fe;2020-02-10 18:43:57.526735;"""Kraków""";"Kraków, Kraków , Wzgórza Krzesławickie, ""Kraków""";ArcelorMittal oddział Kraków (Huta im. Tadeusza Sendzimira), 1, Ujastek, Krzesławice, Wzgórza Krzesławickie, Kraków, województwo małopolskie, 31-752, Polska;(50.0799299, 20.0665192, 0.0);50.0799299;20.0665192;0.0;POINT (576283.8405999765 246397.3590065716)
18;Okazja ! os Hutnicze 2 pokoje 54m2 6500 zł/m2;Kraków , Nowa Huta;2 pokoje;355000.0;54.0;6574.0;https://www.otodom.pl/oferta/okazja-os-hutnicze-2-pokoje-54m2-6500-zl-m2-ID44CE9.html#de3f47c1fe;2020-02-10 18:43:57.526735;Hutnicze;Kraków, Kraków , Nowa Huta, Hutnicze;Osiedle Hutnicze, Osiedle Na Skarpie, Nowa Huta, Kraków, województwo małopolskie, Polska;(50.0727517, 20.0454692, 0.0);50.0727517;20.0454692;0.0;POINT (574789.4141547376 245578.2219592398)
25;2 pokoje - Wola Justowska - okolice Błoń !;Kraków , Zwierzyniec, Wola Justowska;2 pokoje;409000.0;31.46;13001.0;https://www.otodom.pl/oferta/2-pokoje-wola-justowska-okolice-blon-ID44zHA.html#de3f47c1fe;2020-02-10 18:43:57.527732;Justowska;Kraków, Kraków , Zwierzyniec, Wola Justowska, Justowska;FUP Kraków 23, 238, Królowej Jadwigi, Zwierzyniec, Kraków, województwo małopolskie, 30-220, Polska;(50.0650619, 19.877649, 0.0);50.0650619;19.877649;0.0;POINT (562794.3317268024 244568.9814333031)
27;3 pokoje na 2 piętrze Wola Duchacka (Właściciel);Kraków , Podgórze Duchackie, Wola Duchacka;3 pokoje;461000.0;53.08;8685.0;https://www.otodom.pl/oferta/3-pokoje-na-2-pietrze-wola-duchacka-wlasciciel-ID44phL.html#de3f47c1fe;2020-02-10 18:47:22.320834;Duchacka;Kraków, Kraków , Podgórze Duchackie, Wola Duchacka, Duchacka;Kraków Bonarka, Kładka pieszo-rowerowa, Wola Duchacka, Podgórze Duchackie, Kraków, województwo małopolskie, 30-416, Polska;(50.0293189, 19.9462275, 0.0);50.0293189;19.9462275;0.0;POINT (567751.2342442736 240656.0522081703)
61;Apartament 3 pokojowy, 63 m, Grzegórzki Kotlarska;Kraków , Grzegórzki;3 pokoje;674800.0;63.0;10711.0;https://www.otodom.pl/oferta/apartament-3-pokojowy-63-m-grzegorzki-kotlarska-ID44pdH.html#bcc2421ba9;2020-02-10 18:47:23.702826;Grzegórzeckie;Kraków, Kraków , Grzegórzki, Grzegórzeckie;Rondo Grzegórzeckie, Grzegórzecka, Wesoła, Grzegórzki, Kraków, województwo małopolskie, 31-539, Polska;(50.05760175, 19.957833465730346, 0.0);50.05760175;19.957833465730346;0.0;POINT (568541.9372308356 243810.2551311059)
70;słoneczne mieszkanie na 2 piętrze w cenie meble;Kraków , Nowa Huta;2 pokoje;395000.0;52.0;7596.0;https://www.otodom.pl/oferta/sloneczne-mieszkanie-na-2-pietrze-w-cenie-meble-ID44Cxj.html#bcc2421ba9;2020-02-10 18:47:23.702826;Słoneczne;Kraków, Kraków , Nowa Huta, Słoneczne;Osiedle Słoneczne, Nowa Huta, Kraków, województwo małopolskie, Polska;(50.0776057, 20.0420898, 0.0);50.0776057;20.0420898;0.0;POINT (574540.1416298144 246114.3636779059)
71;3 pokoje Ruczaj Taras;Kraków , Dębniki, Ruczaj;3 pokoje;500000.0;50.5;9901.0;https://www.otodom.pl/oferta/3-pokoje-ruczaj-taras-ID44Cx9.html#bcc2421ba9;2020-02-10 18:47:23.702826;Ruczaj;Kraków, Kraków , Dębniki, Ruczaj, Ruczaj;Ruczaj, Osiedle Ruczaj-Zaborze, Dębniki, Kraków, województwo małopolskie, 30-409, Polska;(50.0259495, 19.9198508, 0.0);50.0259495;19.9198508;0.0;POINT (565867.2616859295 240257.9741840241)
72;Dobrego Pasterza | Klimatyzacja | 3 Pok. | Eng;Kraków , Prądnik Czerwony;3 pokoje;790000.0;58.26;13560.0;https://www.otodom.pl/oferta/dobrego-pasterza-klimatyzacja-3-pok-eng-ID44CvF.html#bcc2421ba9;2020-02-10 18:47:23.702826;Pasterza;Kraków, Kraków , Prądnik Czerwony, Pasterza;Kościół pw. Pana Jezusa Dobrego Pasterza, 4, Dobrego Pasterza, Prądnik Czerwony, Kraków, województwo małopolskie, 31-416, Polska;(50.08851445, 19.95839608107648, 0.0);50.08851445;19.95839608107648;0.0;POINT (568538.1184385554 247246.7144761141)
73;Kawalerka, Rondo Matecznego, Deweloperskie;Kraków , Podgórze;1 pokój;213125.0;17.0;12537.0;https://www.otodom.pl/oferta/kawalerka-rondo-matecznego-deweloperskie-ID44Cvw.html#bcc2421ba9;2020-02-10 18:47:23.702826;Matecznego;Kraków, Kraków , Podgórze, Matecznego;Rondo Antoniego Matecznego, Mateczny, Podgórze, Kraków, województwo małopolskie, 30-524, Polska;(50.0367797, 19.9405272, 0.0);50.0367797;19.9405272;0.0;POINT (567332.6572123085 241480.1638806006)
75;Mieszkanie, 66 m², Kraków;Kraków , Krowodrza, Łobzów;3 pokoje;625000.0;66.0;9470.0;https://www.otodom.pl/oferta/mieszkanie-66-m-krakow-ID44Cvo.html#bcc2421ba9;2020-02-10 18:47:23.702826;"""Kraków""";"Kraków, Kraków , Krowodrza, Łobzów, ""Kraków""";Biblioteka Kraków Filia 21, 59, Królewska, Łobzów, Krowodrza, Kraków, województwo małopolskie, 30-831, Polska;(50.073512, 19.9149277, 0.0);50.073512;19.9149277;0.0;POINT (565450.0202899084 245540.2055338537)
76;Umeblowane M2 z pięknym widokiem blisko Bonarki;Kraków , Podgórze Duchackie, Wola Duchacka;2 pokoje;375000.0;50.0;7500.0;https://www.otodom.pl/oferta/umeblowane-m2-z-pieknym-widokiem-blisko-bonarki-ID44Co5.html#bcc2421ba9;2020-02-10 18:47:23.702826;Bonarka;Kraków, Kraków , Podgórze Duchackie, Wola Duchacka, Bonarka;Bonarka, Bonarka City Center, Podgórze Duchackie, Kraków, województwo małopolskie, Polska;(50.02881094999999, 19.953975973958336, 0.0);50.02881094999999;19.953975973958336;0.0;POINT (568306.7476097146 240606.6451572897)
77;3 pokojowe mieszkanie 2015R. Do Wejścia Ul. Reduta;Kraków , Prądnik Czerwony;3 pokoje;530000.0;54.16;9786.0;https://www.otodom.pl/oferta/3-pokojowe-mieszkanie-2015r-do-wejscia-ul-reduta-ID44Co7.html#bcc2421ba9;2020-02-10 18:47:23.703824;Reduta;Kraków, Kraków , Prądnik Czerwony, Reduta;Reduta, Śródmieście, Prądnik Czerwony, Kraków, województwo małopolskie, 31-422, Polska;(50.0990724, 19.9742987, 0.0);50.0990724;19.9742987;0.0;POINT (569660.039822349 248434.9460827624)
79;2 pokoje, Ruczaj - bez 2%podatku Pcc;Kraków , Dębniki, Ruczaj;2 pokoje;338000.0;38.0;8895.0;https://www.otodom.pl/oferta/2-pokoje-ruczaj-bez-2-podatku-pcc-ID44Cwi.html#bcc2421ba9;2020-02-10 18:47:23.703824;Ruczaj;Kraków, Kraków , Dębniki, Ruczaj, Ruczaj;Ruczaj, Osiedle Ruczaj-Zaborze, Dębniki, Kraków, województwo małopolskie, 30-409, Polska;(50.0259495, 19.9198508, 0.0);50.0259495;19.9198508;0.0;POINT (565867.2616859295 240257.9741840241)
81;Kazimierz - Bezpośrednio - 18 Mieszkań;Kraków , Stare Miasto, Kazimierz;>10 pokoi;588000.0;37.0;15892.0;https://www.otodom.pl/oferta/kazimierz-bezposrednio-18-mieszkan-ID448eU.html#e7b1ebfb0e;2020-02-10 18:47:24.636181;Kazimierza;Kraków, Kraków , Stare Miasto, Kazimierz, Kazimierza;Apartamenty Sekret Kazimierza, 34, Józefa, Kazimierz, Stare Miasto, Kraków, województwo małopolskie, 31-056, Polska;(50.0512307, 19.9469375, 0.0);50.0512307;19.9469375;0.0;POINT (567771.2149040747 243092.1779909022)
86;Okazja! Mieszkanie na Azorach ul. Weissa 2 pokoje;Kraków , Prądnik Biały, Azory;2 pokoje;349000.0;43.0;8116.0;https://www.otodom.pl/oferta/okazja-mieszkanie-na-azorach-ul-weissa-2-pokoje-ID44Cte.html#e7b1ebfb0e;2020-02-10 18:47:24.636181;Weissa;Kraków, Kraków , Prądnik Biały, Azory, Weissa;Wojciecha Weissa, Azory, Prądnik Biały, Kraków, województwo małopolskie, 31-339, Polska;(50.0874389, 19.9094303, 0.0);50.0874389;19.9094303;0.0;POINT (565037.9198166056 247083.3829868166)
92;Mieszkanie, 57 m², Kraków;Kraków , Mistrzejowice;2 pokoje;505000.0;57.0;8860.0;https://www.otodom.pl/oferta/mieszkanie-57-m-krakow-ID44Csw.html#e7b1ebfb0e;2020-02-10 18:47:24.636181;"""Kraków""";"Kraków, Kraków , Mistrzejowice, ""Kraków""";Lądowisko Rakowice-Czyżyny, Stefana Jurczaka, Czyżyny, Kraków, województwo małopolskie, 31-634, Polska;(50.0846957, 19.9886787, 0.0);50.0846957;19.9886787;0.0;POINT (570709.3112874664 246850.4873105474)
98;Kraków, Nowa Huta, os. Hutnicze - 2 pokoje, 54 m2;Kraków , Nowa Huta;2 pokoje;355000.0;54.0;6574.0;https://www.otodom.pl/oferta/krakow-nowa-huta-os-hutnicze-2-pokoje-54-m2-ID44Crd.html#e7b1ebfb0e;2020-02-10 18:47:24.637209;Hutnicze;Kraków, Kraków , Nowa Huta, Hutnicze;Osiedle Hutnicze, Osiedle Na Skarpie, Nowa Huta, Kraków, województwo małopolskie, Polska;(50.0727517, 20.0454692, 0.0);50.0727517;20.0454692;0.0;POINT (574789.4141547376 245578.2219592398)
103;Mieszkanie Mogilska 29 mkw idealne pod inwestycję;Kraków , Grzegórzki;1 pokój;321751.44;29.16;11034.0;https://www.otodom.pl/oferta/mieszkanie-mogilska-29-mkw-idealne-pod-inwestycje-ID3yBFp.html#e7b1ebfb0e;2020-02-10 18:47:24.637209;Mogilska;Kraków, Kraków , Grzegórzki, Mogilska;Mogilska, Osiedle Oficerskie, Grzegórzki, Kraków, województwo małopolskie, 31-526, Polska;(50.0666138, 19.9645711, 0.0);50.0666138;19.9645711;0.0;POINT (569011.1389877439 244818.1431406736)
104;Apartament w nowej inwestycji Zbożowa/ Prądnicka;Kraków , Krowodrza;2 pokoje;584000.0;43.2;13519.0;https://www.otodom.pl/oferta/apartament-w-nowej-inwestycji-zbozowa-pradnicka-ID3HMUY.html#e7b1ebfb0e;2020-02-10 18:47:24.637209;Zbożowa;Kraków, Kraków , Krowodrza, Zbożowa;Zbożowa, Kleparz, Krowodrza, Kraków, województwo małopolskie, 30-002, Polska;(50.0786614, 19.9369787, 0.0);50.0786614;19.9369787;0.0;POINT (567020.2515605342 246132.112717892)
106;Wykończony apartament Nadwiślańska 135 mkw;Kraków , Podgórze;6 pokoi;2200000.0;135.0;16296.0;https://www.otodom.pl/oferta/wykonczony-apartament-nadwislanska-135-mkw-ID415Zv.html#e7b1ebfb0e;2020-02-10 18:47:24.637209;Nadwiślańska;Kraków, Kraków , Podgórze, Nadwiślańska;Nadwiślańska, Podgórze, Kraków, województwo małopolskie, 30-527, Polska;(50.0478058, 19.954043, 0.0);50.0478058;19.954043;0.0;POINT (568284.5988071965 242717.9699587375)
114;Licytacja mieszkanai * 41,17 m2 * ul. Płaszowska;Kraków , Podgórze;2 pokoje;216582.0;41.17;5261.0;https://www.otodom.pl/oferta/licytacja-mieszkanai-41-17-m2-ul-plaszowska-ID44Clp.html#51e2ab8c8f;2020-02-10 18:47:25.688923;Płaszowska;Kraków, Kraków , Podgórze, Płaszowska;Płaszowska, Płaszów, Podgórze, Kraków, województwo małopolskie, 30-712, Polska;(50.0439921, 19.9741265, 0.0);50.0439921;19.9741265;0.0;POINT (569727.5547931304 242312.6228475543)
116;Gotowiec Inwestycyjny, Mistrzejowice, Os. Piastów;Kraków , Mistrzejowice;5 pokoi;499000.0;56.0;8911.0;https://www.otodom.pl/oferta/gotowiec-inwestycyjny-mistrzejowice-os-piastow-ID44CkO.html#51e2ab8c8f;2020-02-10 18:47:25.689919;Mistrzejowicka;Kraków, Kraków , Mistrzejowice, Mistrzejowicka;Mistrzejowicka, Mistrzejowice, Kraków, województwo małopolskie, 31-638, Polska;(50.094553, 20.0276976, 0.0);50.094553;20.0276976;0.0;POINT (573484.7766830483 247983.7896609353)
134;Mieszkanie, 69 m², Kraków;Kraków , Mistrzejowice;3 pokoje;640000.0;69.0;9275.0;https://www.otodom.pl/oferta/mieszkanie-69-m-krakow-ID44Chr.html#51e2ab8c8f;2020-02-10 18:47:25.689919;"""Kraków""";"Kraków, Kraków , Mistrzejowice, ""Kraków""";Lądowisko Rakowice-Czyżyny, Stefana Jurczaka, Czyżyny, Kraków, województwo małopolskie, 31-634, Polska;(50.0846957, 19.9886787, 0.0);50.0846957;19.9886787;0.0;POINT (570709.3112874664 246850.4873105474)
137;Mieszkanie na Zakrzówku, idealne dla rodziny;Kraków , Dębniki;4 pokoje;780000.0;92.0;8478.0;https://www.otodom.pl/oferta/mieszkanie-na-zakrzowku-idealne-dla-rodziny-ID44oFi.html#a4ecda7d5f;2020-02-10 18:47:26.742408;Rodziny;Kraków, Kraków , Dębniki, Rodziny;"Przychodnia Zdrowia Rodziny ""Pro Humana Vita"", Wacława Lipińskiego, Osiedle Ruczaj-Zaborze, Dębniki, Kraków, województwo małopolskie, 30-349, Polska";(50.0269954, 19.9228991, 0.0);50.0269954;19.9228991;0.0;POINT (566084.1012761064 240376.9152774606)
145;Mieszkanie 70,40m², Kraków, Wola Duchacka Zachód;Kraków , Podgórze Duchackie, Wola Duchacka;4 pokoje;540000.0;70.4;7670.0;https://www.otodom.pl/oferta/mieszkanie-70-40m-krakow-wola-duchacka-zachod-ID44BlY.html#a4ecda7d5f;2020-02-10 18:47:26.743406;Duchacka;Kraków, Kraków , Podgórze Duchackie, Wola Duchacka, Duchacka;Kraków Bonarka, Kładka pieszo-rowerowa, Wola Duchacka, Podgórze Duchackie, Kraków, województwo małopolskie, 30-416, Polska;(50.0293189, 19.9462275, 0.0);50.0293189;19.9462275;0.0;POINT (567751.2342442736 240656.0522081703)
146;Kozłówek - kawalerka po remoncie, mpec;Kraków , Bieżanów-Prokocim, Kozłówek;1 pokój;279000.0;25.0;11160.0;https://www.otodom.pl/oferta/kozlowek-kawalerka-po-remoncie-mpec-ID44Cfz.html#a4ecda7d5f;2020-02-10 18:47:26.743406;Kozłówce;Kraków, Kraków , Bieżanów-Prokocim, Kozłówek, Kozłówce;Na Kozłówce, Osiedle Kozłówek, Bieżanów-Prokocim, Kraków, województwo małopolskie, 30-664, Polska;(50.0187848, 19.9821103, 0.0);50.0187848;19.9821103;0.0;POINT (570335.8320297964 239518.3362252237)
150;4 pokojowy apartament w Bronowicach;Kraków , Bronowice;4 pokoje;989000.0;100.0;9890.0;https://www.otodom.pl/oferta/4-pokojowy-apartament-w-bronowicach-ID44CeH.html#a4ecda7d5f;2020-02-10 18:47:26.743406;Bronowicka;Kraków, Kraków , Bronowice, Bronowicka;Bronowicka, Bronowice, Kraków, województwo małopolskie, 30-092, Polska;(50.0778252, 19.9008289, 0.0);50.0778252;19.9008289;0.0;POINT (564435.6860522896 246007.3624577383)
151;Na sprzedaż 3 pokojowe mieszkanie Zabłocie;Kraków , Podgórze, Zabłocie;3 pokoje;849000.0;75.74;11209.0;https://www.otodom.pl/oferta/na-sprzedaz-3-pokojowe-mieszkanie-zablocie-ID44CeF.html#a4ecda7d5f;2020-02-10 18:47:26.743406;Zabłocie;Kraków, Kraków , Podgórze, Zabłocie, Zabłocie;Zabłocie, Podgórze, Kraków, województwo małopolskie, 30-701, Polska;(50.050241, 19.9619043, 0.0);50.050241;19.9619043;0.0;POINT (568843.7698691209 242995.8532821322)
152;NOWOŚĆ - II poziomowe + garaż, ogród ! Balicka ok;Kraków , Bronowice;3 pokoje;530000.0;89.09;5949.0;https://www.otodom.pl/oferta/nowosc-ii-poziomowe-garaz-ogrod-balicka-ok-ID44CdZ.html#a4ecda7d5f;2020-02-10 18:47:26.743406;Balicka;Kraków, Kraków , Bronowice, Balicka;Balicka, Bronowice Małe, Bronowice, Kraków, województwo małopolskie, 31-356, Polska;(50.0821293, 19.8840666, 0.0);50.0821293;19.8840666;0.0;POINT (563231.0450569391 246471.4412929667)
153;Kraków Mieszkanie z ogródkiem 2 pokoje Bronowice;Kraków , Bronowice;2 pokoje;464000.0;55.77;8320.0;https://www.otodom.pl/oferta/krakow-mieszkanie-z-ogrodkiem-2-pokoje-bronowice-ID44fhA.html#a4ecda7d5f;2020-02-10 18:47:26.743406;"""Kraków""";"Kraków, Kraków , Bronowice, ""Kraków""";Kraków Mydlniki, Generała Bolesława Wieniawy-Długoszowskiego, Mydlniki, Bronowice, Kraków, województwo małopolskie, 30-149, Polska;(50.0835967, 19.8596997, 0.0);50.0835967;19.8596997;0.0;POINT (561486.3987794621 246614.2021077145)
154;Kozłówek - możliwość zrobienia 3 pokoi, do remontu;Kraków , Bieżanów-Prokocim, Kozłówek;3 pokoje;380000.0;45.0;8444.0;https://www.otodom.pl/oferta/kozlowek-mozliwosc-zrobienia-3-pokoi-do-remontu-ID44CdT.html#a4ecda7d5f;2020-02-10 18:47:26.743406;Kozłówce;Kraków, Kraków , Bieżanów-Prokocim, Kozłówek, Kozłówce;Na Kozłówce, Osiedle Kozłówek, Bieżanów-Prokocim, Kraków, województwo małopolskie, 30-664, Polska;(50.0187848, 19.9821103, 0.0);50.0187848;19.9821103;0.0;POINT (570335.8320297964 239518.3362252237)
168;2 Oddzielne Pokoje - Aleje Mickiewicza - Centrum;Kraków , Stare Miasto;2 pokoje;519000.0;40.0;12975.0;https://www.otodom.pl/oferta/2-oddzielne-pokoje-aleje-mickiewicza-centrum-ID44CbZ.html#5a3ac0e744;2020-02-10 18:47:27.764237;Mickiewicza;Kraków, Kraków , Stare Miasto, Mickiewicza;Pomnik Adama Mickiewicza, Rynek Główny, Stare Miasto, Kraków, województwo małopolskie, Polska;(50.0614663, 19.93799022, 0.0);50.0614663;19.93799022;0.0;POINT (567116.5978517713 244221.7862579739)
170;4 pokoje, 75 m2, Płaszów, okol. ul. Saskiej;Kraków , Podgórze, Płaszów;4 pokoje;565000.0;75.0;7533.0;https://www.otodom.pl/oferta/4-pokoje-75-m2-plaszow-okol-ul-saskiej-ID44Cb3.html#5a3ac0e744;2020-02-10 18:47:27.765234;Płaszów;Kraków, Kraków , Podgórze, Płaszów, Płaszów;Kraków Płaszów, Peron 2 - moderniacja, Płaszów, Podgórze, Kraków, województwo małopolskie, 30-902, Polska;(50.0345327, 19.9754459, 0.0);50.0345327;19.9754459;0.0;POINT (569835.7166101226 241262.450246132)
171;3 pokoje, 58 m2, Płaszów, okol. ul. Saskiej;Kraków , Podgórze, Płaszów;3 pokoje;450000.0;58.0;7759.0;https://www.otodom.pl/oferta/3-pokoje-58-m2-plaszow-okol-ul-saskiej-ID44CaT.html#5a3ac0e744;2020-02-10 18:47:27.765234;Płaszów;Kraków, Kraków , Podgórze, Płaszów, Płaszów;Kraków Płaszów, Peron 2 - moderniacja, Płaszów, Podgórze, Kraków, województwo małopolskie, 30-902, Polska;(50.0345327, 19.9754459, 0.0);50.0345327;19.9754459;0.0;POINT (569835.7166101226 241262.450246132)
174;Apartamenty Działkowa C7-do odbioru VI 2020;Kraków , Bieżanów-Prokocim;3 pokoje;392805.0;54.18;7250.0;https://www.otodom.pl/oferta/apartamenty-dzialkowa-c7-do-odbioru-vi-2020-ID41a4W.html#5a3ac0e744;2020-02-10 18:47:27.765234;Działkowa;Kraków, Kraków , Bieżanów-Prokocim, Działkowa;Działkowa, Nowy Bieżanów, Bieżanów-Prokocim, Kraków, województwo małopolskie, 30-854, Polska;(50.0220962, 20.0174934, 0.0);50.0220962;20.0174934;0.0;POINT (572864.8105122502 239920.2790303715)
175;Apartamenty Działkowa B1 z pięknym tarasem pow.45m;Kraków , Bieżanów-Prokocim;3 pokoje;442818.0;60.66;7300.0;https://www.otodom.pl/oferta/apartamenty-dzialkowa-b1-z-pieknym-tarasem-pow-45m-ID41a4m.html#5a3ac0e744;2020-02-10 18:47:27.765234;Działkowa;Kraków, Kraków , Bieżanów-Prokocim, Działkowa;Działkowa, Nowy Bieżanów, Bieżanów-Prokocim, Kraków, województwo małopolskie, 30-854, Polska;(50.0220962, 20.0174934, 0.0);50.0220962;20.0174934;0.0;POINT (572864.8105122502 239920.2790303715)
176;Apartamenty Działkowa B6-do odbioru VI 2020;Kraków , Bieżanów-Prokocim;3 pokoje;416208.0;60.32;6900.0;https://www.otodom.pl/oferta/apartamenty-dzialkowa-b6-do-odbioru-vi-2020-ID41a4r.html#5a3ac0e744;2020-02-10 18:47:27.765234;Działkowa;Kraków, Kraków , Bieżanów-Prokocim, Działkowa;Działkowa, Nowy Bieżanów, Bieżanów-Prokocim, Kraków, województwo małopolskie, 30-854, Polska;(50.0220962, 20.0174934, 0.0);50.0220962;20.0174934;0.0;POINT (572864.8105122502 239920.2790303715)
177;Apartamenty Działkowa C12-do odbioru VI 2020;Kraków , Bieżanów-Prokocim;3 pokoje;380068.0;51.71;7350.0;https://www.otodom.pl/oferta/apartamenty-dzialkowa-c12-do-odbioru-vi-2020-ID41a59.html#5a3ac0e744;2020-02-10 18:47:27.765234;Działkowa;Kraków, Kraków , Bieżanów-Prokocim, Działkowa;Działkowa, Nowy Bieżanów, Bieżanów-Prokocim, Kraków, województwo małopolskie, 30-854, Polska;(50.0220962, 20.0174934, 0.0);50.0220962;20.0174934;0.0;POINT (572864.8105122502 239920.2790303715)
178;Apartamenty Działkowa B13-do odbioru VI 2020;Kraków , Bieżanów-Prokocim;2 pokoje;314652.0;40.34;7800.0;https://www.otodom.pl/oferta/apartamenty-dzialkowa-b13-do-odbioru-vi-2020-ID44pGL.html#5a3ac0e744;2020-02-10 18:47:27.766233;Działkowa;Kraków, Kraków , Bieżanów-Prokocim, Działkowa;Działkowa, Nowy Bieżanów, Bieżanów-Prokocim, Kraków, województwo małopolskie, 30-854, Polska;(50.0220962, 20.0174934, 0.0);50.0220962;20.0174934;0.0;POINT (572864.8105122502 239920.2790303715)
179;Kraków, Kazimierza Wlk 70m2 od właściciela!;Kraków , Krowodrza;4 pokoje;655000.0;70.0;9357.0;https://www.otodom.pl/oferta/krakow-kazimierza-wlk-70m2-od-wlasciciela-ID43Pvu.html#5a3ac0e744;2020-02-10 18:47:27.766233;Kazimierza;Kraków, Kraków , Krowodrza, Kazimierza;Kazimierza Wielkiego, Łobzów, Krowodrza, Kraków, województwo małopolskie, 30-053, Polska;(50.0747782, 19.9130924, 0.0);50.0747782;19.9130924;0.0;POINT (565317.0125641699 245679.3376280712)
180;Kraków – Grzegórzki – ul. Rzeźnicza – 57 m2;Kraków , Grzegórzki;2 pokoje;540000.0;57.0;9474.0;https://www.otodom.pl/oferta/krakow-grzegorzki-ul-rzeznicza-57-m2-ID44C9y.html#5a3ac0e744;2020-02-10 18:47:27.766233;"""Kraków""";"Kraków, Kraków , Grzegórzki, ""Kraków""";Kraków Główny, Peron 3, Wesoła, Stare Miasto, Kraków, województwo małopolskie, 30-901, Polska;(50.0686663, 19.947802, 0.0);50.0686663;19.947802;0.0;POINT (567808.5033167193 245030.9240660574)
182;Wiślane Tarasy 2.0 - nowy ekskluzywny apartament;Kraków , Grzegórzki;2 pokoje;970000.0;53.57;18107.0;https://www.otodom.pl/oferta/wislane-tarasy-2-0-nowy-ekskluzywny-apartament-ID441jI.html#5a3ac0e744;2020-02-10 18:47:27.766233;Wiślana;Kraków, Kraków , Grzegórzki, Wiślana;Mierzeja Wiślana, Mały Płaszów, Podgórze, Kraków, województwo małopolskie, 30-716, Polska;(50.038134, 20.0042085, 0.0);50.038134;20.0042085;0.0;POINT (571889.5218590654 241689.9986086423)
186;Kraków – Kazimierz – ul. Wrzesińska – 43 m2;Kraków , Stare Miasto, Kazimierz;3 pokoje;470000.0;43.0;10930.0;https://www.otodom.pl/oferta/krakow-kazimierz-ul-wrzesinska-43-m2-ID44C8m.html#5a3ac0e744;2020-02-10 18:47:27.767228;"""Kraków""";"Kraków, Kraków , Stare Miasto, Kazimierz, ""Kraków""";Biblioteka Kraków Filia 2, 29, Krakowska, Kazimierz, Stare Miasto, Kraków, województwo małopolskie, 31-062, Polska;(50.0491954, 19.9428537, 0.0);50.0491954;19.9428537;0.0;POINT (567481.800806875 242862.259914238)
189;Sprzedam mieszkanie Kraków ul. Św. Wawrzyńca;Kraków , Stare Miasto;2 pokoje;780000.0;54.0;14444.0;https://www.otodom.pl/oferta/sprzedam-mieszkanie-krakow-ul-sw-wawrzynca-ID44wJb.html#eace19cb28;2020-02-10 18:47:28.749886;"""Kraków""";"Kraków, Kraków , Stare Miasto, ""Kraków""";Kraków, województwo małopolskie, Polska;(50.0619474, 19.9368564, 0.0);50.0619474;19.9368564;0.0;POINT (567034.7997178583 244274.2426178176)
195;Św Sebastian | Kazimierz | 3 Pok | Eng;Kraków , Stare Miasto, Kazimierz;3 pokoje;795000.0;87.83;9052.0;https://www.otodom.pl/oferta/sw-sebastian-kazimierz-3-pok-eng-ID44C7o.html#eace19cb28;2020-02-10 18:47:28.750883;Sebastiana;Kraków, Kraków , Stare Miasto, Kazimierz, Sebastiana;Świętego Sebastiana, Kazimierz, Stare Miasto, Kraków, województwo małopolskie, 31-050, Polska;(50.0550345, 19.9445772, 0.0);50.0550345;19.9445772;0.0;POINT (567596.9495899291 243512.8310432937)
197;Mieszkanie na ul. Orła Białego/ Prądnik Czerwony;Kraków , Prądnik Czerwony;2 pokoje;429000.0;51.38;8350.0;https://www.otodom.pl/oferta/mieszkanie-na-ul-orla-bialego-pradnik-czerwony-ID44AoM.html#eace19cb28;2020-02-10 18:47:28.750883;Białego;Kraków, Kraków , Prądnik Czerwony, Białego;UP Kraków 10, 17, Józefa Mackiewicza, Prądnik Biały, Kraków, województwo małopolskie, 31-210, Polska;(50.0937742, 19.9478821, 0.0);50.0937742;19.9478821;0.0;POINT (567778.8209109498 247821.7423629202)
199;Dwupokojowe mieszkanie Prądnik Czerwony.;Kraków , Prądnik Czerwony;2 pokoje;499999.0;53.8;9294.0;https://www.otodom.pl/oferta/dwupokojowe-mieszkanie-pradnik-czerwony-ID44y9i.html#eace19cb28;2020-02-10 18:47:28.750883;Prądnika;Kraków, Kraków , Prądnik Czerwony, Prądnika;Enklawa Prądnika, Prądnik Czerwony, Kraków, województwo małopolskie, Polska;(50.0933468, 19.98679355896063, 0.0);50.0933468;19.98679355896063;0.0;POINT (570561.7860403393 247810.2744327188)
200;Do sprzedania 3 pokojowe mieszkanie ul. Majora.;Kraków , Prądnik Czerwony;3 pokoje;455000.0;52.4;8683.0;https://www.otodom.pl/oferta/do-sprzedania-3-pokojowe-mieszkanie-ul-majora-ID44ynf.html#eace19cb28;2020-02-10 18:47:28.750883;Majora;Kraków, Kraków , Prądnik Czerwony, Majora;Majora, Prądnik Czerwony, Kraków, województwo małopolskie, Polska;(50.0884029, 19.96545315306553, 0.0);50.0884029;19.96545315306553;0.0;POINT (569042.9452361747 247240.8151780115)
202;Nowoczesne 3- pokojowe mieszkanie ul Beskidzka;Kraków , Podgórze Duchackie, Wola Duchacka;3 pokoje;495000.0;50.0;9900.0;https://www.otodom.pl/oferta/nowoczesne-3-pokojowe-mieszkanie-ul-beskidzka-ID44aQy.html#eace19cb28;2020-02-10 18:47:28.750883;Beskidzka;Kraków, Kraków , Podgórze Duchackie, Wola Duchacka, Beskidzka;Beskidzka, Wola Duchacka Zachód, Podgórze Duchackie, Kraków, województwo małopolskie, 30-612, Polska;(50.0151835, 19.9502237, 0.0);50.0151835;19.9502237;0.0;POINT (568057.332112341 239088.5462495741)
206;3-pok, ul. Zdunów, 8150 zł/m2, Borek Fałęcki;Kraków , Łagiewniki-Borek Fałęcki, Borek Fałęcki;3 pokoje;489000.0;59.77;8181.0;https://www.otodom.pl/oferta/3-pok-ul-zdunow-8150-zl-m2-borek-falecki-ID44mkP.html#eace19cb28;2020-02-10 18:47:28.751881;Zdunów;Kraków, Kraków , Łagiewniki-Borek Fałęcki, Borek Fałęcki, Zdunów;Zdunów, Borek Fałęcki, Łagiewniki-Borek Fałęcki, Kraków, województwo małopolskie, 30-428, Polska;(50.0188872, 19.9212195, 0.0);50.0188872;19.9212195;0.0;POINT (565974.9402217474 239474.2123573571)
207;Kawalerka z antresolą 43 m2 - ul. Podkowińskiego;Kraków , Prądnik Biały, Azory;1 pokój;325000.0;33.0;9848.0;https://www.otodom.pl/oferta/kawalerka-z-antresola-43-m2-ul-podkowinskiego-ID44voO.html#eace19cb28;2020-02-10 18:47:28.751881;Podkowińskiego;Kraków, Kraków , Prądnik Biały, Azory, Podkowińskiego;Władysława Podkowińskiego, Azory, Prądnik Biały, Kraków, województwo małopolskie, 31-321, Polska;(50.0858676, 19.8953088, 0.0);50.0858676;19.8953088;0.0;POINT (564030.1285457449 246896.531687161)
209;Mieszkanie Kliny ul. Bartla;Kraków , Dębniki, Kliny-Zacisze;3 pokoje;399000.0;71.0;5620.0;https://www.otodom.pl/oferta/mieszkanie-kliny-ul-bartla-ID44C3O.html#eace19cb28;2020-02-10 18:47:28.751881;Bartla;Kraków, Kraków , Dębniki, Kliny-Zacisze, Bartla;Wojciecha Marii Bartla, Kobierzyn, Swoszowice, Kraków, województwo małopolskie, 30-389, Polska;(49.9989363, 19.8974534, 0.0);49.9989363;19.8974534;0.0;POINT (564299.5224207429 237235.9889421109)
210;Mieszkanie Wielicka - 3 pokoje, miejsce w garażu;Kraków , Bieżanów-Prokocim, Prokocim;3 pokoje;650000.0;66.0;9848.0;https://www.otodom.pl/oferta/mieszkanie-wielicka-3-pokoje-miejsce-w-garazu-ID44akc.html#eace19cb28;2020-02-10 18:47:28.751881;Wielicka;Kraków, Kraków , Bieżanów-Prokocim, Prokocim, Wielicka;Wielicka, Prokocim, Bieżanów-Prokocim, Kraków, województwo małopolskie, 30-820, Polska;(50.0180993, 19.9895841, 0.0);50.0180993;19.9895841;0.0;POINT (570872.0827279496 239449.2013470018)
215;Funkcjonalna kawalerka, Dębniki, ul. Wasilewskiego;Kraków , Dębniki;1 pokój;355000.0;22.3;15919.0;https://www.otodom.pl/oferta/funkcjonalna-kawalerka-debniki-ul-wasilewskiego-ID44C5g.html#eace19cb28;2020-02-10 18:47:28.752877;Dębnicki;Kraków, Kraków , Dębniki, Dębnicki;Park Dębnicki, Dębniki, Kraków, województwo małopolskie, Polska;(50.0495234, 19.91693092494888, 0.0);50.0495234;19.91693092494888;0.0;POINT (565626.040058322 242875.6318850024)
218;Mieszkanie, 64 m², Kraków;Kraków , Zwierzyniec, Salwator;3 pokoje;722000.0;64.0;11281.0;https://www.otodom.pl/oferta/mieszkanie-64-m-krakow-ID3OpKg.html#a613ca9287;2020-02-10 18:47:29.750110;"""Kraków""";"Kraków, Kraków , Zwierzyniec, Salwator, ""Kraków""";Biblioteka Kraków Filia 27, 37b, Królowej Jadwigi, Salwator, Zwierzyniec, Kraków, województwo małopolskie, 30-209, Polska;(50.0549099, 19.9094939, 0.0);50.0549099;19.9094939;0.0;POINT (565086.4830836609 243467.8360076407)
220;Bożego Ciała, 158m²: Nowy, wyjątkowy apartament;Kraków , Stare Miasto, Kazimierz;6 pokoi;1900000.0;158.0;12025.0;https://www.otodom.pl/oferta/bozego-ciala-158m-nowy-wyjatkowy-apartament-ID43cee.html#a613ca9287;2020-02-10 18:47:29.750110;Ciała;Kraków, Kraków , Stare Miasto, Kazimierz, Ciała;Kościół pw. Bożego Ciała, Świętego Wawrzyńca, Kazimierz, Stare Miasto, Kraków, województwo małopolskie, 31-060, Polska;(50.049762900000005, 19.9448288931872, 0.0);50.049762900000005;19.9448288931872;0.0;POINT (567622.3693770306 242927.1226350591)
224;2 pokoje z Balkonem, 39,5 m2, Ruczaj;Kraków , Dębniki, Ruczaj;2 pokoje;286233.0;39.21;7300.0;https://www.otodom.pl/oferta/2-pokoje-z-balkonem-39-5-m2-ruczaj-ID44C33.html#a613ca9287;2020-02-10 18:47:29.751140;Ruczaj;Kraków, Kraków , Dębniki, Ruczaj, Ruczaj;Ruczaj, Osiedle Ruczaj-Zaborze, Dębniki, Kraków, województwo małopolskie, 30-409, Polska;(50.0259495, 19.9198508, 0.0);50.0259495;19.9198508;0.0;POINT (565867.2616859295 240257.9741840241)
225;Krowoderskich Zuchów, 5 pokoi, 67m2!;Kraków , Krowodrza;5 pokoi;544000.0;67.0;8119.0;https://www.otodom.pl/oferta/krowoderskich-zuchow-5-pokoi-67m2-ID44C2U.html#a613ca9287;2020-02-10 18:47:29.751140;Zuchów;Kraków, Kraków , Krowodrza, Zuchów;Krowoderskich Zuchów, Krowodrza, Prądnik Biały, Kraków, województwo małopolskie, 31-271, Polska;(50.0838836, 19.930691, 0.0);50.0838836;19.930691;0.0;POINT (566563.2797053672 246706.9391442938)
232;Płaszowska 3 pokoje do wejścia;Kraków , Podgórze, Płaszów;3 pokoje;565000.0;62.87;8987.0;https://www.otodom.pl/oferta/plaszowska-3-pokoje-do-wejscia-ID44C0G.html#a613ca9287;2020-02-10 18:47:29.751140;Płaszowska;Kraków, Kraków , Podgórze, Płaszów, Płaszowska;Płaszowska, Płaszów, Podgórze, Kraków, województwo małopolskie, 30-712, Polska;(50.0439921, 19.9741265, 0.0);50.0439921;19.9741265;0.0;POINT (569727.5547931304 242312.6228475543)
236;Nowa inwest. 29 Aleja, ul. Prandoty,3 pok, bezpośr;Kraków , Prądnik Czerwony, Rakowice;3 pokoje;559000.0;62.45;8951.0;https://www.otodom.pl/oferta/nowa-inwest-29-aleja-ul-prandoty-3-pok-bezposr-ID4467F.html#a613ca9287;2020-02-10 18:47:29.751140;Prandoty;Kraków, Kraków , Prądnik Czerwony, Rakowice, Prandoty;Biskupa Jana Prandoty, Warszawskie, Grzegórzki, Kraków, województwo małopolskie, 31-520, Polska;(50.0766319, 19.9553353, 0.0);50.0766319;19.9553353;0.0;POINT (568336.1269097649 245923.1639303183)
237;Ul.Sienkiewicza -Mieszkanie w Kamienicy-Centrum;Kraków , Krowodrza;2 pokoje;540000.0;68.0;7941.0;https://www.otodom.pl/oferta/ul-sienkiewicza-mieszkanie-w-kamienicy-centrum-ID44BZg.html#a613ca9287;2020-02-10 18:47:29.751140;Sienkiewicza;Kraków, Kraków , Krowodrza, Sienkiewicza;Henryka Sienkiewicza, Nowa Wieś, Krowodrza, Kraków, województwo małopolskie, 30-015, Polska;(50.0738394, 19.9283736, 0.0);50.0738394;19.9283736;0.0;POINT (566411.4156999905 245588.4621790284)
239;Bezpośrednio mieszkanie na Os. Krakowiaków /57.5m2;Kraków , Bieńczyce;3 pokoje;379000.0;57.5;6591.0;https://www.otodom.pl/oferta/bezposrednio-mieszkanie-na-os-krakowiakow-57-5m2-ID44o8s.html#a613ca9287;2020-02-10 18:47:29.751140;Krakowiaków;Kraków, Kraków , Bieńczyce, Krakowiaków;Osiedle Krakowiaków, Nowa Huta, Kraków, województwo małopolskie, Polska;(50.0829927, 20.0378038, 0.0);50.0829927;20.0378038;0.0;POINT (574225.2534001479 246708.8584379833)
243;Krowodrza, Wrocławska, 25m2, Kawalerka;Kraków , Krowodrza;1 pokój;246000.0;25.0;9840.0;https://www.otodom.pl/oferta/krowodrza-wroclawska-25m2-kawalerka-ID44AoD.html#1797ff2c09;2020-02-10 18:47:30.713106;Wrocławska;Kraków, Kraków , Krowodrza, Wrocławska;Wrocławska, Stara Krowodrza, Krowodrza, Kraków, województwo małopolskie, 30-006, Polska;(50.0764315, 19.9281731, 0.0);50.0764315;19.9281731;0.0;POINT (566393.4934839678 245876.3961282093)
250;ok. Bonerowska, 92 m2, 2 apartamenty z klimatem.;Kraków , Stare Miasto;4 pokoje;999000.0;92.0;10859.0;https://www.otodom.pl/oferta/ok-bonerowska-92-m2-2-apartamenty-z-klimatem-ID43il7.html#1797ff2c09;2020-02-10 18:47:30.714109;Bonerowska;Kraków, Kraków , Stare Miasto, Bonerowska;Bonerowska, Wesoła, Stare Miasto, Kraków, województwo małopolskie, 31-030, Polska;(50.059063, 19.9457319, 0.0);50.059063;19.9457319;0.0;POINT (567673.915290587 243961.6425882401)
251;Piękne dwupokojowe mieszkanie - Prądnik Czerwony!;Kraków , Prądnik Czerwony;2 pokoje;439000.0;46.0;9543.0;https://www.otodom.pl/oferta/piekne-dwupokojowe-mieszkanie-pradnik-czerwony-ID44BXa.html#1797ff2c09;2020-02-10 18:47:30.714109;Prądnika;Kraków, Kraków , Prądnik Czerwony, Prądnika;Enklawa Prądnika, Prądnik Czerwony, Kraków, województwo małopolskie, Polska;(50.0933468, 19.98679355896063, 0.0);50.0933468;19.98679355896063;0.0;POINT (570561.7860403393 247810.2744327188)
256;Mieszkanie, 63 m², Kraków;Kraków , Podgórze;2 pokoje;598437.0;63.0;9499.0;https://www.otodom.pl/oferta/mieszkanie-63-m-krakow-ID44BVe.html#1797ff2c09;2020-02-10 18:47:30.714109;"""Kraków""";"Kraków, Kraków , Podgórze, ""Kraków""";Kraków Płaszów, Peron 2 - moderniacja, Płaszów, Podgórze, Kraków, województwo małopolskie, 30-902, Polska;(50.0345327, 19.9754459, 0.0);50.0345327;19.9754459;0.0;POINT (569835.7166101226 241262.450246132)
257;Przytulny apartament w kamienicy - Kazimierz!;Kraków , Stare Miasto, Kazimierz;2 pokoje;599000.0;48.8;12275.0;https://www.otodom.pl/oferta/przytulny-apartament-w-kamienicy-kazimierz-ID44BV9.html#1797ff2c09;2020-02-10 18:47:30.714109;Kazimierza;Kraków, Kraków , Stare Miasto, Kazimierz, Kazimierza;Apartamenty Sekret Kazimierza, 34, Józefa, Kazimierz, Stare Miasto, Kraków, województwo małopolskie, 31-056, Polska;(50.0512307, 19.9469375, 0.0);50.0512307;19.9469375;0.0;POINT (567771.2149040747 243092.1779909022)
260;3 pokoje z dużym tarasem na Ruczaju;Kraków , Dębniki, Ruczaj;3 pokoje;790000.0;79.0;10000.0;https://www.otodom.pl/oferta/3-pokoje-z-duzym-tarasem-na-ruczaju-ID440cz.html#1797ff2c09;2020-02-10 18:47:30.715101;Ruczaj;Kraków, Kraków , Dębniki, Ruczaj, Ruczaj;Ruczaj, Osiedle Ruczaj-Zaborze, Dębniki, Kraków, województwo małopolskie, 30-409, Polska;(50.0259495, 19.9198508, 0.0);50.0259495;19.9198508;0.0;POINT (565867.2616859295 240257.9741840241)
261;3 pokoje na Zabłociu;Kraków , Podgórze;3 pokoje;997000.0;75.0;13293.0;https://www.otodom.pl/oferta/3-pokoje-na-zablociu-ID44njI.html#1797ff2c09;2020-02-10 18:47:30.715101;Zabłocie;Kraków, Kraków , Podgórze, Zabłocie;Zabłocie, Podgórze, Kraków, województwo małopolskie, 30-705, Polska;(50.0510909, 19.9735024, 0.0);50.0510909;19.9735024;0.0;POINT (569672.6048377061 243101.0676127635)
262;Przestronny apartament dla rodziny;Kraków , Dębniki;4 pokoje;959000.0;120.0;7992.0;https://www.otodom.pl/oferta/przestronny-apartament-dla-rodziny-ID448M4.html#1797ff2c09;2020-02-10 18:47:30.715101;Rodziny;Kraków, Kraków , Dębniki, Rodziny;"Przychodnia Zdrowia Rodziny ""Pro Humana Vita"", Wacława Lipińskiego, Osiedle Ruczaj-Zaborze, Dębniki, Kraków, województwo małopolskie, 30-349, Polska";(50.0269954, 19.9228991, 0.0);50.0269954;19.9228991;0.0;POINT (566084.1012761064 240376.9152774606)
265;Mieszkanie, 80 m², Kraków;Kraków , Bronowice;3 pokoje;830000.0;80.0;10375.0;https://www.otodom.pl/oferta/mieszkanie-80-m-krakow-ID44mc2.html#1797ff2c09;2020-02-10 18:47:30.715101;"""Kraków""";"Kraków, Kraków , Bronowice, ""Kraków""";Kraków Mydlniki, Generała Bolesława Wieniawy-Długoszowskiego, Mydlniki, Bronowice, Kraków, województwo małopolskie, 30-149, Polska;(50.0835967, 19.8596997, 0.0);50.0835967;19.8596997;0.0;POINT (561486.3987794621 246614.2021077145)
267;Słoneczne Ciche Duże Balkon Taras Komórka Dębniki;Kraków , Dębniki;3 pokoje;720000.0;80.0;9000.0;https://www.otodom.pl/oferta/sloneczne-ciche-duze-balkon-taras-komorka-debniki-ID44mPE.html#1797ff2c09;2020-02-10 18:47:30.715101;Słoneczne;Kraków, Kraków , Dębniki, Słoneczne;Słoneczne Kliny, Dębniki, Kraków, województwo małopolskie, 30-389, Polska;(50.0007588, 19.8913445, 0.0);50.0007588;19.8913445;0.0;POINT (563859.4321044431 237433.3236511061)
268;Przytulne, do wprowadzenia 39m Chełmońskiego;Kraków , Bronowice;2 pokoje;399000.0;39.01;10228.0;https://www.otodom.pl/oferta/przytulne-do-wprowadzenia-39m-chelmonskiego-ID44umI.html#1797ff2c09;2020-02-10 18:47:30.715101;Chełmońskiego;Kraków, Kraków , Bronowice, Chełmońskiego;Józefa Chełmońskiego, Bronowice Wielkie, Prądnik Biały, Kraków, województwo małopolskie, 31-348, Polska;(50.0970811, 19.8942649, 0.0);50.0970811;19.8942649;0.0;POINT (563940.5492672679 248142.0244571455)
270;Drugi Etap! Zielonki- KrK!! POPIELATE WZGÓRZA 2.0!;Kraków , Prądnik Biały;3 pokoje;429000.0;63.5;6756.0;https://www.otodom.pl/oferta/drugi-etap-zielonki-krk-popielate-wzgorza-2-0-ID3DRyU.html#83328eeb52;2020-02-10 18:47:31.956618;Zielonki;Kraków, Kraków , Prądnik Biały, Zielonki;Na Zielonki, Tonie, Prądnik Biały, Kraków, województwo małopolskie, 31-268, Polska;(50.1155609, 19.9006123, 0.0);50.1155609;19.9006123;0.0;POINT (564369.6124846622 250201.5232388088)
272;Kawalerka, Pachońskiego, gotowa do odbioru.;Kraków , Prądnik Biały;1 pokój;252000.0;25.0;10080.0;https://www.otodom.pl/oferta/kawalerka-pachonskiego-gotowa-do-odbioru-ID43uO2.html#83328eeb52;2020-02-10 18:47:31.956618;Pachońskiego;Kraków, Kraków , Prądnik Biały, Pachońskiego;Pachońskiego, Henryka Pachońskiego, Prądnik Biały, Kraków, województwo małopolskie, 31-223, Polska;(50.0952985, 19.9315645, 0.0);50.0952985;19.9315645;0.0;POINT (566609.9270383697 247976.4880002327)
275;Kameralne Z Tarasem I Ogródkiem, Chełmońskiego;Kraków , Prądnik Biały;2 pokoje;464000.0;60.68;7647.0;https://www.otodom.pl/oferta/kameralne-z-tarasem-i-ogrodkiem-chelmonskiego-ID43C7c.html#83328eeb52;2020-02-10 18:47:31.956618;Chełmońskiego;Kraków, Kraków , Prądnik Biały, Chełmońskiego;Józefa Chełmońskiego, Osiedle Azory, Prądnik Biały, Kraków, województwo małopolskie, 31-301, Polska;(50.0863097, 19.9139884, 0.0);50.0863097;19.9139884;0.0;POINT (565365.4233826527 246961.8507835707)
281;Ładne Słoneczne Zadbane Z Tarasem Kobierzyn;Kraków , Dębniki, Kobierzyn;3 pokoje;575000.0;67.0;8582.0;https://www.otodom.pl/oferta/ladne-sloneczne-zadbane-z-tarasem-kobierzyn-ID43vdH.html#83328eeb52;2020-02-10 18:47:31.957616;Słoneczne;Kraków, Kraków , Dębniki, Kobierzyn, Słoneczne;FUP Kraków 11, Wojciecha Marii Bartla, Kobierzyn, Swoszowice, Kraków, województwo małopolskie, 30-389, Polska;(49.9988969, 19.8958089, 0.0);49.9988969;19.8958089;0.0;POINT (564181.7536297874 237230.1971481992)
304;Mieszkanie, 36,18 m², Kraków;Kraków , Bieżanów-Prokocim, Bieżanów;3 pokoje;974968.0;36.18;26948.0;https://www.otodom.pl/oferta/mieszkanie-36-18-m-krakow-ID44BUz.html#332e1d6712;2020-02-10 18:47:33.106164;"""Kraków""";"Kraków, Kraków , Bieżanów-Prokocim, Bieżanów, ""Kraków""";Kraków Bieżanów, Stacyjna, Bieżanów, Bieżanów-Prokocim, Kraków, województwo małopolskie, 30-851, Polska;(50.0216944, 20.0292567, 0.0);50.0216944;20.0292567;0.0;POINT (573707.8040077245 239887.1503805425)
306;Apartament Sosnowiecka Wyposażony Wysoki Standard;Kraków , Bronowice;1 pokój;362000.0;33.16;10917.0;https://www.otodom.pl/oferta/apartament-sosnowiecka-wyposazony-wysoki-standard-ID44BSK.html#332e1d6712;2020-02-10 18:47:33.106164;Sosnowiecka;Kraków, Kraków , Bronowice, Sosnowiecka;Sosnowiecka, Bronowice Wielkie, Prądnik Biały, Kraków, województwo małopolskie, 31-345, Polska;(50.0941069, 19.8872281, 0.0);50.0941069;19.8872281;0.0;POINT (563441.3476489857 247805.4391453853)
307;Biały Prądnik Kawalerka z dużym Ogródkiem;Kraków , Krowodrza;1 pokój;265000.0;27.28;9714.0;https://www.otodom.pl/oferta/bialy-pradnik-kawalerka-z-duzym-ogrodkiem-ID42UKW.html#332e1d6712;2020-02-10 18:47:33.106164;Prądnika;Kraków, Kraków , Krowodrza, Prądnika;Biblioteka Kraków Filia 20, 37, Opolska, Krowodrza, Prądnik Biały, Kraków, województwo małopolskie, 31-276, Polska;(50.0908748, 19.9266944, 0.0);50.0908748;19.9266944;0.0;POINT (566267.8051162784 247480.4596007112)
308;Nowoczesne mieszkanie - Ruczaj - ul. Piltza 3 pok;Kraków , Dębniki, Ruczaj;3 pokoje;597412.0;60.06;9947.0;https://www.otodom.pl/oferta/nowoczesne-mieszkanie-ruczaj-ul-piltza-3-pok-ID44sPJ.html#332e1d6712;2020-02-10 18:47:33.106164;Ruczaj;Kraków, Kraków , Dębniki, Ruczaj, Ruczaj;Ruczaj, Osiedle Ruczaj-Zaborze, Dębniki, Kraków, województwo małopolskie, 30-409, Polska;(50.0259495, 19.9198508, 0.0);50.0259495;19.9198508;0.0;POINT (565867.2616859295 240257.9741840241)
313;Dwuczęściowy apartament w Browarze Lubicz;Kraków , Stare Miasto;4 pokoje;1900000.0;90.0;21111.0;https://www.otodom.pl/oferta/dwuczesciowy-apartament-w-browarze-lubicz-ID44BSl.html#332e1d6712;2020-02-10 18:47:33.107162;Lubicz;Kraków, Kraków , Stare Miasto, Lubicz;Lubicz, Wesoła, Stare Miasto, Kraków, województwo małopolskie, 31-156, Polska;(50.0646181, 19.9449621, 0.0);50.0646181;19.9449621;0.0;POINT (567611.0227438222 244578.3936977992)
314;Mieszkanie dwupokojowe, ul. Centralna/Aleja Pokoju;Kraków , Nowa Huta, Czyżyny;2 pokoje;390000.0;53.24;7325.0;https://www.otodom.pl/oferta/mieszkanie-dwupokojowe-ul-centralna-aleja-pokoju-ID44j9w.html#332e1d6712;2020-02-10 18:47:33.107162;Pokoju;Kraków, Kraków , Nowa Huta, Czyżyny, Pokoju;Aleja Pokoju, Nowa Huta, Kraków, województwo małopolskie, 31-982, Polska;(50.0728559, 20.0175579, 0.0);50.0728559;20.0175579;0.0;POINT (572792.6114353463 245562.2350378316)
315;Kazimierz - mieszkanie inwestycyjne pod wynajem;Kraków , Stare Miasto;3 pokoje;805000.0;61.82;13022.0;https://www.otodom.pl/oferta/kazimierz-mieszkanie-inwestycyjne-pod-wynajem-ID44xLr.html#332e1d6712;2020-02-10 18:47:33.107162;Kazimierza;Kraków, Kraków , Stare Miasto, Kazimierza;Kościół pw. Świętego Kazimierza Królewicza, 4, Reformacka, Stare Miasto, Kraków, województwo małopolskie, 31-012, Polska;(50.0648696, 19.936230887154693, 0.0);50.0648696;19.936230887154693;0.0;POINT (566985.9733360073 244598.4836738249)
316;Atrakcyjny Apartament /ul. Babinicza , Kraków;Kraków , Dębniki, Kliny-Zacisze;2 pokoje;524000.0;64.0;8188.0;https://www.otodom.pl/oferta/atrakcyjny-apartament-ul-babinicza-krakow-ID445Tp.html#332e1d6712;2020-02-10 18:47:33.107162;Babinicza;Kraków, Kraków , Dębniki, Kliny-Zacisze, Babinicza;Babinicza, Kobierzyn, Swoszowice, Kraków, województwo małopolskie, 30-389, Polska;(50.0011381, 19.899539, 0.0);50.0011381;19.899539;0.0;POINT (564446.0029997233 237482.5115945647)
317;Penthouse z tarasem, Wisła, 5 min na Wawel, Gotowe;Kraków , Dębniki, Stare Dębniki;7 pokoi;5490000.0;207.0;26522.0;https://www.otodom.pl/oferta/penthouse-z-tarasem-wisla-5-min-na-wawel-gotowe-ID440w5.html#332e1d6712;2020-02-10 18:47:33.107162;Wawel;Kraków, Kraków , Dębniki, Stare Dębniki, Wawel;Wawel Service, 17, Borkowska, Osiedle Millenia Fort, Swoszowice, Kraków, województwo małopolskie, 30-438, Polska;(50.0043354, 19.9049948, 0.0);50.0043354;19.9049948;0.0;POINT (564832.5687838288 237842.6034618132)
319;Mieszkanie 3-pokojowe 58m2 Śródmieście ul. Śliczna;Kraków , małopolskie;3 pokoje;599000.0;57.79;10365.0;https://www.otodom.pl/oferta/mieszkanie-3-pokojowe-58m2-srodmiescie-ul-sliczna-ID44BNT.html#332e1d6712;2020-02-10 18:47:33.107162;Śliczna;Kraków, Kraków , małopolskie, Śliczna;Śliczna, Wieczysta, Prądnik Czerwony, Kraków, województwo małopolskie, 31-444, Polska;(50.0732132, 19.9762981, 0.0);50.0732132;19.9762981;0.0;POINT (569840.5585650825 245562.5621479955)
323;Płaszów | 38m2 | 2 pokoje | Nowoczesne wykończenie;Kraków , Podgórze, Płaszów;2 pokoje;398000.0;38.0;10474.0;https://www.otodom.pl/oferta/plaszow-38m2-2-pokoje-nowoczesne-wykonczenie-ID44BLO.html#332e1d6712;2020-02-10 18:47:33.107162;Płaszów;Kraków, Kraków , Podgórze, Płaszów, Płaszów;Kraków Płaszów, Peron 2 - moderniacja, Płaszów, Podgórze, Kraków, województwo małopolskie, 30-902, Polska;(50.0345327, 19.9754459, 0.0);50.0345327;19.9754459;0.0;POINT (569835.7166101226 241262.450246132)
324;Atrakcyjne mieszkanie Stare Dębniki;Kraków , Dębniki, Stare Dębniki;2 pokoje;608600.0;34.0;17900.0;https://www.otodom.pl/oferta/atrakcyjne-mieszkanie-stare-debniki-ID44tL5.html#9daaa38f30;2020-02-10 18:47:33.986340;Dębnicki;Kraków, Kraków , Dębniki, Stare Dębniki, Dębnicki;Park Dębnicki, Dębniki, Kraków, województwo małopolskie, Polska;(50.0495234, 19.91693092494888, 0.0);50.0495234;19.91693092494888;0.0;POINT (565626.040058322 242875.6318850024)
326;Nowe 2 pok. Wiślane Tarasy-do wejścia-garaż;Kraków , Grzegórzki;2 pokoje;970000.0;53.57;18107.0;https://www.otodom.pl/oferta/nowe-2-pok-wislane-tarasy-do-wejscia-garaz-ID44mNB.html#9daaa38f30;2020-02-10 18:47:33.986340;Wiślana;Kraków, Kraków , Grzegórzki, Wiślana;Mierzeja Wiślana, Mały Płaszów, Podgórze, Kraków, województwo małopolskie, 30-716, Polska;(50.038134, 20.0042085, 0.0);50.038134;20.0042085;0.0;POINT (571889.5218590654 241689.9986086423)
327;Mieszkanie 2-pok z garażem - Solvay Park;Kraków , Łagiewniki-Borek Fałęcki;2 pokoje;360000.0;54.0;6667.0;https://www.otodom.pl/oferta/mieszkanie-2-pok-z-garazem-solvay-park-ID44BGd.html#9daaa38f30;2020-02-10 18:47:33.986340;Solvaya;Kraków, Kraków , Łagiewniki-Borek Fałęcki, Solvaya;Ernesta Solvaya, Osiedle Polana Żywiecka, Łagiewniki-Borek Fałęcki, Kraków, województwo małopolskie, 30-427, Polska;(50.0141253, 19.9116839, 0.0);50.0141253;19.9116839;0.0;POINT (565298.4931948668 238936.5609450648)
328;3-pokojowe - Ruczaj + miejsce w garażu;Kraków , małopolskie;3 pokoje;650000.0;75.0;8667.0;https://www.otodom.pl/oferta/3-pokojowe-ruczaj-miejsce-w-garazu-ID44BLe.html#9daaa38f30;2020-02-10 18:47:33.986340;Ruczaj;Kraków, Kraków , małopolskie, Ruczaj;Ruczaj, Osiedle Ruczaj-Zaborze, Dębniki, Kraków, województwo małopolskie, 30-409, Polska;(50.0259495, 19.9198508, 0.0);50.0259495;19.9198508;0.0;POINT (565867.2616859295 240257.9741840241)
330;Kawalerka na poddaszu, 35 m2, ul. Szlachtowskiego;Kraków , Krowodrza;1 pokój;260000.0;35.05;7418.0;https://www.otodom.pl/oferta/kawalerka-na-poddaszu-35-m2-ul-szlachtowskiego-ID44BKC.html#9daaa38f30;2020-02-10 18:47:33.986340;Szlachtowskiego;Kraków, Kraków , Krowodrza, Szlachtowskiego;Feliksa Szlachtowskiego, Łobzów, Krowodrza, Kraków, województwo małopolskie, 30-124, Polska;(50.0731376, 19.9047949, 0.0);50.0731376;19.9047949;0.0;POINT (564725.6776610728 245489.7630269704)
331;Bezpośrednio, Kawalerka, Mistrzejowice;Kraków , Mistrzejowice;1 pokój;239000.0;27.48;8697.0;https://www.otodom.pl/oferta/bezposrednio-kawalerka-mistrzejowice-ID43m3i.html#9daaa38f30;2020-02-10 18:47:33.986340;Mistrzejowicka;Kraków, Kraków , Mistrzejowice, Mistrzejowicka;Mistrzejowicka, Mistrzejowice, Kraków, województwo małopolskie, 31-638, Polska;(50.094553, 20.0276976, 0.0);50.094553;20.0276976;0.0;POINT (573484.7766830483 247983.7896609353)
333;M3 77m2 2xgaraż. Poznańska 5 KRK Właściciel. 900K;Kraków , Krowodrza;3 pokoje;900000.0;77.0;11688.0;https://www.otodom.pl/oferta/m3-77m2-2xgaraz-poznanska-5-krk-wlasciciel-900k-ID44o2G.html#9daaa38f30;2020-02-10 18:47:33.986340;Poznańska;Kraków, Kraków , Krowodrza, Poznańska;Poznańska, Stara Krowodrza, Krowodrza, Kraków, województwo małopolskie, 30-011, Polska;(50.0778637, 19.9248844, 0.0);50.0778637;19.9248844;0.0;POINT (566156.2809729435 246032.6677610809)
334;Mieszkanie dwupoziomowe Kraków - Sidzina;Kraków , Dębniki, Sidzina;4 pokoje;579000.0;85.0;6812.0;https://www.otodom.pl/oferta/mieszkanie-dwupoziomowe-krakow-sidzina-ID44BH1.html#9daaa38f30;2020-02-10 18:47:33.987337;"""Kraków""";"Kraków, Kraków , Dębniki, Sidzina, ""Kraków""";Kraków Sidzina, Topografów, Sidzina, Dębniki, Kraków, województwo małopolskie, 30-399, Polska;(49.9855309, 19.8746169, 0.0);49.9855309;19.8746169;0.0;POINT (562680.8089087415 235726.6111213788)
337;Os. Kombatantów | 55m2 | 3pokoje | Zielona okolica;Kraków , Mistrzejowice;3 pokoje;439000.0;55.0;7982.0;https://www.otodom.pl/oferta/os-kombatantow-55m2-3pokoje-zielona-okolica-ID44BFp.html#9daaa38f30;2020-02-10 18:47:33.987337;Kombatantów;Kraków, Kraków , Mistrzejowice, Kombatantów;Osiedle Kombatantów, Mistrzejowice, Kraków, województwo małopolskie, 31-630, Polska;(50.0925382, 20.00902871768482, 0.0);50.0925382;20.00902871768482;0.0;POINT (572152.9218189595 247741.6425429909)
338;Os. Teatralne | 53m2 | 3pokoje | Nowoczesny desain;Kraków , Nowa Huta;3 pokoje;479000.0;53.0;9038.0;https://www.otodom.pl/oferta/os-teatralne-53m2-3pokoje-nowoczesny-desain-ID44BFo.html#9daaa38f30;2020-02-10 18:47:33.987337;Teatralne;Kraków, Kraków , Nowa Huta, Teatralne;Osiedle Teatralne, Nowa Huta, Kraków, województwo małopolskie, Polska;(50.0797342, 20.0327324, 0.0);50.0797342;20.0327324;0.0;POINT (573867.5536850548 246341.6503876057)
341;Kraków, Bronowice Wielkie, Ojcowska 76;Kraków , Bronowice;5 pokoi;658000.0;123.0;5350.0;https://www.otodom.pl/oferta/krakow-bronowice-wielkie-ojcowska-76-ID44BDY.html#9daaa38f30;2020-02-10 18:47:33.987337;Ojcowska;Kraków, Kraków , Bronowice, Ojcowska;Ojcowska, Bronowice Małe, Bronowice, Kraków, województwo małopolskie, 31-351, Polska;(50.0909418, 19.8811497, 0.0);50.0909418;19.8811497;0.0;POINT (563010.8675204101 247448.4906284576)
342;Oboźna inwestycyjne;Kraków , Krowodrza;1 pokój;252000.0;25.0;10080.0;https://www.otodom.pl/oferta/obozna-inwestycyjne-ID44BDS.html#9daaa38f30;2020-02-10 18:47:33.987337;Oboźna;Kraków, Kraków , Krowodrza, Oboźna;Oboźna, Stara Krowodrza, Krowodrza, Kraków, województwo małopolskie, 30-010, Polska;(50.0797998, 19.9287252, 0.0);50.0797998;19.9287252;0.0;POINT (566428.3308404414 246251.2739920234)
343;Apartamenty Działkowa C3 z dużym tarasem;Kraków , Bieżanów-Prokocim;2 pokoje;369526.0;50.62;7300.0;https://www.otodom.pl/oferta/apartamenty-dzialkowa-c3-z-duzym-tarasem-ID41a4R.html#9daaa38f30;2020-02-10 18:47:33.987337;Działkowa;Kraków, Kraków , Bieżanów-Prokocim, Działkowa;Działkowa, Nowy Bieżanów, Bieżanów-Prokocim, Kraków, województwo małopolskie, 30-854, Polska;(50.0220962, 20.0174934, 0.0);50.0220962;20.0174934;0.0;POINT (572864.8105122502 239920.2790303715)
344;Apartamenty Działkowa C6-do odbioru VI 2020;Kraków , Bieżanów-Prokocim;3 pokoje;404064.0;56.12;7200.0;https://www.otodom.pl/oferta/apartamenty-dzialkowa-c6-do-odbioru-vi-2020-ID41a4U.html#9daaa38f30;2020-02-10 18:47:33.987337;Działkowa;Kraków, Kraków , Bieżanów-Prokocim, Działkowa;Działkowa, Nowy Bieżanów, Bieżanów-Prokocim, Kraków, województwo małopolskie, 30-854, Polska;(50.0220962, 20.0174934, 0.0);50.0220962;20.0174934;0.0;POINT (572864.8105122502 239920.2790303715)
345;Apartamenty Działkowa C9-do odbioru zVI 2020;Kraków , Bieżanów-Prokocim;3 pokoje;392805.0;54.18;7250.0;https://www.otodom.pl/oferta/apartamenty-dzialkowa-c9-do-odbioru-zvi-2020-ID41a50.html#9daaa38f30;2020-02-10 18:47:33.987337;Działkowa;Kraków, Kraków , Bieżanów-Prokocim, Działkowa;Działkowa, Nowy Bieżanów, Bieżanów-Prokocim, Kraków, województwo małopolskie, 30-854, Polska;(50.0220962, 20.0174934, 0.0);50.0220962;20.0174934;0.0;POINT (572864.8105122502 239920.2790303715)
346;Apartamenty Działkowa C15-do odbioru VI 2020;Kraków , Bieżanów-Prokocim;3 pokoje;383523.0;52.18;7350.0;https://www.otodom.pl/oferta/apartamenty-dzialkowa-c15-do-odbioru-vi-2020-ID41a5j.html#9daaa38f30;2020-02-10 18:47:33.987337;Działkowa;Kraków, Kraków , Bieżanów-Prokocim, Działkowa;Działkowa, Nowy Bieżanów, Bieżanów-Prokocim, Kraków, województwo małopolskie, 30-854, Polska;(50.0220962, 20.0174934, 0.0);50.0220962;20.0174934;0.0;POINT (572864.8105122502 239920.2790303715)
350;Kawalerka 35m2, ul. Rakowicka 20, Kraków;Kraków , Stare Miasto;1 pokój;400000.0;35.0;11429.0;https://www.otodom.pl/oferta/kawalerka-35m2-ul-rakowicka-20-krakow-ID41td8.html#9daaa38f30;2020-02-10 18:47:33.987337;Rakowicka;Kraków, Kraków , Stare Miasto, Rakowicka;Rakowicka, Warszawskie, Grzegórzki, Kraków, województwo małopolskie, 31-511, Polska;(50.068229, 19.9525984, 0.0);50.068229;19.9525984;0.0;POINT (568152.2658953031 244986.6823723251)
351;Wyjątkowy przestronny apartament Bieńczyce 135m2;Kraków , Bieńczyce;5 pokoi;695000.0;135.0;5148.0;https://www.otodom.pl/oferta/wyjatkowy-przestronny-apartament-bienczyce-135m2-ID43hxT.html#a9383fdd22;2020-02-10 18:47:34.972639;Bieńczyckie;Kraków, Kraków , Bieńczyce, Bieńczyckie;Planty Bieńczyckie, Bieńczyce, Kraków, województwo małopolskie, 31-845, Polska;(50.08937935, 20.011360169078962, 0.0);50.08937935;20.011360169078962;0.0;POINT (572324.3890057355 247392.7915977798)
353;2 pokojowe mieszkanie, Prądnik Czerwony;Kraków , Prądnik Czerwony;2 pokoje;435000.0;45.0;9667.0;https://www.otodom.pl/oferta/2-pokojowe-mieszkanie-pradnik-czerwony-ID44v2f.html#a9383fdd22;2020-02-10 18:47:34.972639;Prądnika;Kraków, Kraków , Prądnik Czerwony, Prądnika;Enklawa Prądnika, Prądnik Czerwony, Kraków, województwo małopolskie, Polska;(50.0933468, 19.98679355896063, 0.0);50.0933468;19.98679355896063;0.0;POINT (570561.7860403393 247810.2744327188)
354;Mieszkanie 3-pokojowe, 73 m2, Kraków, Ruczaj;Kraków , Dębniki, Ruczaj;2 pokoje;439000.0;73.0;6014.0;https://www.otodom.pl/oferta/mieszkanie-3-pokojowe-73-m2-krakow-ruczaj-ID41sYk.html#a9383fdd22;2020-02-10 18:47:34.973640;Ruczaj;Kraków, Kraków , Dębniki, Ruczaj, Ruczaj;Ruczaj, Osiedle Ruczaj-Zaborze, Dębniki, Kraków, województwo małopolskie, 30-409, Polska;(50.0259495, 19.9198508, 0.0);50.0259495;19.9198508;0.0;POINT (565867.2616859295 240257.9741840241)
356;Kawalerka, 4/4 , 26m Strusia Bieńczyce Kraków;Kraków , Bieńczyce;1 pokój;278000.0;26.0;10692.0;https://www.otodom.pl/oferta/kawalerka-4-4-26m-strusia-bienczyce-krakow-ID44AwD.html#a9383fdd22;2020-02-10 18:47:34.973640;Strusia;Kraków, Kraków , Bieńczyce, Strusia;Osiedle Józefa Strusia, Bieńczyce, Kraków, województwo małopolskie, Polska;(50.08848715, 20.009869196375526, 0.0);50.08848715;20.009869196375526;0.0;POINT (572219.1093478991 247292.180990384)
357;Kraków, Mistrzejowice, os. Tysiąclecia 44m+balkon;Kraków , Mistrzejowice;2 pokoje;400000.0;44.0;9091.0;https://www.otodom.pl/oferta/krakow-mistrzejowice-os-tysiaclecia-44m-balkon-ID44ByJ.html#a9383fdd22;2020-02-10 18:47:34.973640;Mistrzejowicka;Kraków, Kraków , Mistrzejowice, Mistrzejowicka;Mistrzejowicka, Mistrzejowice, Kraków, województwo małopolskie, 31-638, Polska;(50.094553, 20.0276976, 0.0);50.094553;20.0276976;0.0;POINT (573484.7766830483 247983.7896609353)
359;Nowe mieszkanie 1-pok. Kraków, Ruczaj;Kraków , Dębniki, Ruczaj;1 pokój;375000.0;39.13;9583.0;https://www.otodom.pl/oferta/nowe-mieszkanie-1-pok-krakow-ruczaj-ID43YFT.html#a9383fdd22;2020-02-10 18:47:34.973640;Ruczaj;Kraków, Kraków , Dębniki, Ruczaj, Ruczaj;Ruczaj, Osiedle Ruczaj-Zaborze, Dębniki, Kraków, województwo małopolskie, 30-409, Polska;(50.0259495, 19.9198508, 0.0);50.0259495;19.9198508;0.0;POINT (565867.2616859295 240257.9741840241)
363;Prywatne Komuny Paryskiej nr 42.;Kraków , Swoszowice;6 pokoi;950000.0;174.0;5460.0;https://www.otodom.pl/oferta/prywatne-komuny-paryskiej-nr-42-ID42deE.html#a9383fdd22;2020-02-10 18:47:34.973640;Paryskiej;Kraków, Kraków , Swoszowice, Paryskiej;Komuny Paryskiej, Kobierzyn, Swoszowice, Kraków, województwo małopolskie, 30-389, Polska;(49.9997609, 19.8943402, 0.0);49.9997609;19.8943402;0.0;POINT (564075.3792182028 237324.9704207378)
365;Kraków, ul. Śliczna blisko Quattro Business Park;Kraków , Prądnik Czerwony, Wieczysta;2 pokoje;515000.0;54.46;9456.0;https://www.otodom.pl/oferta/krakow-ul-sliczna-blisko-quattro-business-park-ID3oy60.html#a9383fdd22;2020-02-10 18:47:34.973640;Śliczna;Kraków, Kraków , Prądnik Czerwony, Wieczysta, Śliczna;Śliczna, Wieczysta, Prądnik Czerwony, Kraków, województwo małopolskie, 31-444, Polska;(50.0732132, 19.9762981, 0.0);50.0732132;19.9762981;0.0;POINT (569840.5585650825 245562.5621479955)
367;Trzy pokoje, 62m, Prądnik Biały, Kraków;Kraków , Prądnik Biały;3 pokoje;579000.0;61.32;9442.0;https://www.otodom.pl/oferta/trzy-pokoje-62m-pradnik-bialy-krakow-ID44Brz.html#a9383fdd22;2020-02-10 18:47:34.973640;Prądnika;Kraków, Kraków , Prądnik Biały, Prądnika;Prądnik Biały, Kraków, województwo małopolskie, Polska;(50.0955225, 19.9283169, 0.0);50.0955225;19.9283169;0.0;POINT (566377.4070532473 247998.4942823648)
370;Mieszkanie Kraków STARE MIASTO Wielopole 38 metr;Kraków , Stare Miasto;2 pokoje;650000.0;38.0;17105.0;https://www.otodom.pl/oferta/mieszkanie-krakow-stare-miasto-wielopole-38-metr-ID44cvZ.html#a9383fdd22;2020-02-10 18:47:34.973640;"""Kraków""";"Kraków, Kraków , Stare Miasto, ""Kraków""";Kraków, województwo małopolskie, Polska;(50.0619474, 19.9368564, 0.0);50.0619474;19.9368564;0.0;POINT (567034.7997178583 244274.2426178176)
376;Sprzedam 76m2 mieszkanie Ulica Pawia 2mieszkania;Kraków , Stare Miasto;2 pokoje;840000.0;76.0;11053.0;https://www.otodom.pl/oferta/sprzedam-76m2-mieszkanie-ulica-pawia-2mieszkania-ID43rvW.html#a9383fdd22;2020-02-10 18:47:34.974634;Pawia;Kraków, Kraków , Stare Miasto, Pawia;Pawia, Kleparz, Stare Miasto, Kraków, województwo małopolskie, 31-154, Polska;(50.0691779, 19.9451093, 0.0);50.0691779;19.9451093;0.0;POINT (567615.1434787014 245085.3479808709)
386;4 pokojowe mieszkanie w zielonej części Bronowic;Kraków , Bronowice;4 pokoje;450700.0;66.0;6829.0;https://www.otodom.pl/oferta/4-pokojowe-mieszkanie-w-zielonej-czesci-bronowic-ID44Ado.html#cf5342ca27;2020-02-10 18:47:36.032898;Bronowicka;Kraków, Kraków , Bronowice, Bronowicka;Bronowicka, Bronowice, Kraków, województwo małopolskie, 30-092, Polska;(50.0778252, 19.9008289, 0.0);50.0778252;19.9008289;0.0;POINT (564435.6860522896 246007.3624577383)
391;2 pok. /53m2/Podgórze/Kurdwanów/ul. Bujaka;Kraków , Podgórze Duchackie, Kurdwanów;2 pokoje;399000.0;53.0;7528.0;https://www.otodom.pl/oferta/2-pok-53m2-podgorze-kurdwanow-ul-bujaka-ID4489u.html#cf5342ca27;2020-02-10 18:47:36.033895;Bujaka;Kraków, Kraków , Podgórze Duchackie, Kurdwanów, Bujaka;Bujaka, Kurdwanów, Podgórze Duchackie, Kraków, województwo małopolskie, Polska;(50.009635200000005, 19.948395750000003, 0.0);50.009635200000005;19.948395750000003;0.0;POINT (567934.2337184104 238470.1971203024)
392;ZIELONKI !! Popielate Wzgórza 2.0!! II ETAP !!;Kraków , Prądnik Biały;3 pokoje;409000.0;57.6;7101.0;https://www.otodom.pl/oferta/zielonki-popielate-wzgorza-2-0-ii-etap-ID40Mtj.html#cf5342ca27;2020-02-10 18:47:36.033895;Popiela;Kraków, Kraków , Prądnik Biały, Popiela;Kronikarza Galla, Łobzów, Krowodrza, Kraków, województwo małopolskie, 30-053, Polska;(50.0744391, 19.9149159, 0.0);50.0744391;19.9149159;0.0;POINT (565447.914190442 245643.2424971201)
400;3 pokoje | 52,7 m2 | Prądnik Czerwony | Winda |;Kraków , Prądnik Czerwony;3 pokoje;459000.0;52.7;8710.0;https://www.otodom.pl/oferta/3-pokoje-52-7-m2-pradnik-czerwony-winda-ID44wMV.html#cf5342ca27;2020-02-10 18:47:36.033895;Prądnika;Kraków, Kraków , Prądnik Czerwony, Prądnika;Enklawa Prądnika, Prądnik Czerwony, Kraków, województwo małopolskie, Polska;(50.0933468, 19.98679355896063, 0.0);50.0933468;19.98679355896063;0.0;POINT (570561.7860403393 247810.2744327188)
403;***Wyjątkowe mieszkanie*** 65m2, Ruczaj, Dębniki;Kraków , Dębniki, Ruczaj;3 pokoje;595000.0;65.8;9043.0;https://www.otodom.pl/oferta/wyjatkowe-mieszkanie-65m2-ruczaj-debniki-ID44zJz.html#cf5342ca27;2020-02-10 18:47:36.033895;Ruczaj;Kraków, Kraków , Dębniki, Ruczaj, Ruczaj;Ruczaj, Osiedle Ruczaj-Zaborze, Dębniki, Kraków, województwo małopolskie, 30-409, Polska;(50.0259495, 19.9198508, 0.0);50.0259495;19.9198508;0.0;POINT (565867.2616859295 240257.9741840241)
411;Mieszkanie Kraków, Podgórze, Ruczaj, Kobierzyńska;Kraków , Dębniki, Ruczaj;2 pokoje;330000.0;42.65;7737.0;https://www.otodom.pl/oferta/mieszkanie-krakow-podgorze-ruczaj-kobierzynska-ID44Be2.html#589aa700e3;2020-02-10 18:47:37.417394;Ruczaj;Kraków, Kraków , Dębniki, Ruczaj, Ruczaj;Ruczaj, Osiedle Ruczaj-Zaborze, Dębniki, Kraków, województwo małopolskie, 30-409, Polska;(50.0259495, 19.9198508, 0.0);50.0259495;19.9198508;0.0;POINT (565867.2616859295 240257.9741840241)
412;3 pok. 72 m2, Górka Narodowa, Prądnik Biały;Kraków , Prądnik Biały, Górka Narodowa;3 pokoje;520000.0;72.47;7175.0;https://www.otodom.pl/oferta/3-pok-72-m2-gorka-narodowa-pradnik-bialy-ID440Z2.html#589aa700e3;2020-02-10 18:47:37.417394;Góra;Kraków, Kraków , Prądnik Biały, Górka Narodowa, Góra;"Schron amunicyjny ""Łysa Góra"", Węgrzecka, Górka Narodowa, Prądnik Biały, Kraków, województwo małopolskie, 31-242, Polska";(50.105246, 19.96920205268595, 0.0);50.105246;19.96920205268595;0.0;POINT (569286.7417427578 249116.4023994775)
413;Nowa inwestycja - Kazimierz Krakowska/Skawińska;Kraków , Stare Miasto, Kazimierz;2 pokoje;634660.0;48.82;13000.0;https://www.otodom.pl/oferta/nowa-inwestycja-kazimierz-krakowska-skawinska-ID44uEx.html#589aa700e3;2020-02-10 18:47:37.417394;Kazimierza;Kraków, Kraków , Stare Miasto, Kazimierz, Kazimierza;Apartamenty Sekret Kazimierza, 34, Józefa, Kazimierz, Stare Miasto, Kraków, województwo małopolskie, 31-056, Polska;(50.0512307, 19.9469375, 0.0);50.0512307;19.9469375;0.0;POINT (567771.2149040747 243092.1779909022)
416;Kawalerka przy ul. Wasilewskiego, 22m2;Kraków , Dębniki;1 pokój;355000.0;22.3;15919.0;https://www.otodom.pl/oferta/kawalerka-przy-ul-wasilewskiego-22m2-ID44Bc1.html#589aa700e3;2020-02-10 18:47:37.417394;Wasilewskiego;Kraków, Kraków , Dębniki, Wasilewskiego;Edmunda Wasilewskiego, Dębniki, Kraków, województwo małopolskie, 30-337, Polska;(50.0491675, 19.9285625, 0.0);50.0491675;19.9285625;0.0;POINT (566459.0071806378 242846.3524282863)
421;3 pokoje w doskonałej lokalizacji, ul. Kapelanka;Kraków , Dębniki;3 pokoje;594000.0;66.06;8992.0;https://www.otodom.pl/oferta/3-pokoje-w-doskonalej-lokalizacji-ul-kapelanka-ID41kAE.html#589aa700e3;2020-02-10 18:47:37.418391;Kapelanka;Kraków, Kraków , Dębniki, Kapelanka;Kapelanka, Zakrzówek, Dębniki, Kraków, województwo małopolskie, 30-347, Polska;(50.032001, 19.9259359, 0.0);50.032001;19.9259359;0.0;POINT (566294.6564807026 240935.9727919856)
428;Apartament ***** Wiślane Tarasy 2.0 - Grzegórzecka;Kraków , Grzegórzki;3 pokoje;1190000.0;60.0;19833.0;https://www.otodom.pl/oferta/apartament-wislane-tarasy-2-0-grzegorzecka-ID44gQV.html#589aa700e3;2020-02-10 18:47:37.418391;Wiślana;Kraków, Kraków , Grzegórzki, Wiślana;Mierzeja Wiślana, Mały Płaszów, Podgórze, Kraków, województwo małopolskie, 30-716, Polska;(50.038134, 20.0042085, 0.0);50.038134;20.0042085;0.0;POINT (571889.5218590654 241689.9986086423)
436;Mieszkanie, 83,57 m², Kraków;Kraków , Podgórze;4 pokoje;830000.0;83.57;9932.0;https://www.otodom.pl/oferta/mieszkanie-83-57-m-krakow-ID44wEI.html#b5bf170a47;2020-02-10 18:47:38.399474;"""Kraków""";"Kraków, Kraków , Podgórze, ""Kraków""";Kraków Płaszów, Peron 2 - moderniacja, Płaszów, Podgórze, Kraków, województwo małopolskie, 30-902, Polska;(50.0345327, 19.9754459, 0.0);50.0345327;19.9754459;0.0;POINT (569835.7166101226 241262.450246132)
449;Kozłówek Ładne 1pok 25m2 279 000 do Negocjacji;Kraków , Podgórze;1 pokój;279000.0;25.0;11160.0;https://www.otodom.pl/oferta/kozlowek-ladne-1pok-25m2-279-000-do-negocjacji-ID44B2h.html#b5bf170a47;2020-02-10 18:47:38.400471;Kozłówce;Kraków, Kraków , Podgórze, Kozłówce;Na Kozłówce, Osiedle Kozłówek, Bieżanów-Prokocim, Kraków, województwo małopolskie, 30-664, Polska;(50.0187848, 19.9821103, 0.0);50.0187848;19.9821103;0.0;POINT (570335.8320297964 239518.3362252237)
462;2 pokoje-Krowodrza-ul. Siemaszki;Kraków , Krowodrza;2 pokoje;411000.0;47.64;8627.0;https://www.otodom.pl/oferta/2-pokoje-krowodrza-ul-siemaszki-ID43TPP.html#df521ce691;2020-02-10 18:47:39.356913;Siemaszki;Kraków, Kraków , Krowodrza, Siemaszki;Księdza Kazimierza Siemaszki, Krowodrza, Prądnik Biały, Kraków, województwo małopolskie, 31-207, Polska;(50.0876278, 19.940191, 0.0);50.0876278;19.940191;0.0;POINT (567237.473283172 247131.6165671712)
468;Mieszkanie Kraków ul. Nowosądecka, 34 m2, 2 pokoje;Kraków , Podgórze Duchackie, Wola Duchacka;2 pokoje;335000.0;34.0;9853.0;https://www.otodom.pl/oferta/mieszkanie-krakow-ul-nowosadecka-34-m2-2-pokoje-ID44AVX.html#df521ce691;2020-02-10 18:47:39.356913;"""Kraków""";"Kraków, Kraków , Podgórze Duchackie, Wola Duchacka, ""Kraków""";Kraków Bonarka, Kładka pieszo-rowerowa, Wola Duchacka, Podgórze Duchackie, Kraków, województwo małopolskie, 30-416, Polska;(50.0293189, 19.9462275, 0.0);50.0293189;19.9462275;0.0;POINT (567751.2342442736 240656.0522081703)
476;Grzegórzki 35M2,2 Pok.1 Piętro,Do Wprowadzenia;Kraków , Grzegórzki;2 pokoje;398000.0;35.0;11371.0;https://www.otodom.pl/oferta/grzegorzki-35m2-2-pok-1-pietro-do-wprowadzenia-ID44AUk.html#df521ce691;2020-02-10 18:47:39.356913;Grzegórzeckie;Kraków, Kraków , Grzegórzki, Grzegórzeckie;Rondo Grzegórzeckie, Grzegórzecka, Wesoła, Grzegórzki, Kraków, województwo małopolskie, 31-539, Polska;(50.05760175, 19.957833465730346, 0.0);50.05760175;19.957833465730346;0.0;POINT (568541.9372308356 243810.2551311059)
481;Mochnackiego, 3-pokojowe do negocjacji;Kraków , Podgórze;3 pokoje;623000.0;63.39;9828.0;https://www.otodom.pl/oferta/mochnackiego-3-pokojowe-do-negocjacji-ID445g7.html#df521ce691;2020-02-10 18:47:39.356913;Mochnackiego;Kraków, Kraków , Podgórze, Mochnackiego;Maurycego Mochnackiego, Wola Duchacka, Podgórze Duchackie, Kraków, województwo małopolskie, 30-633, Polska;(50.0238917, 19.9632851, 0.0);50.0238917;19.9632851;0.0;POINT (568980.3356590546 240068.4229162214)
488;2 pokoje, 39m2, ogród, zamknięte osiedle;Kraków , Swoszowice, Opatkowice;2 pokoje;339000.0;39.0;8692.0;https://www.otodom.pl/oferta/2-pokoje-39m2-ogrod-zamkniete-osiedle-ID43Zjj.html#ebf75736ab;2020-02-10 18:47:40.351869;Osiedle;Kraków, Kraków , Swoszowice, Opatkowice, Osiedle;Łagiewniki-Borek Fałęcki, Kraków, województwo małopolskie, 30-418, Polska;(50.0199633, 19.9294446, 0.0);50.0199633;19.9294446;0.0;POINT (566562.5010926843 239601.1100098249)
489;Mieszkanie 52,34 m2 Kraków;Kraków , Bieżanów-Prokocim, Prokocim;3 pokoje;398706.0;51.78;7700.0;https://www.otodom.pl/oferta/mieszkanie-52-34-m2-krakow-ID43Wg5.html#ebf75736ab;2020-02-10 18:47:40.351869;"""Kraków""";"Kraków, Kraków , Bieżanów-Prokocim, Prokocim, ""Kraków""";Kraków Bieżanów, Stacyjna, Bieżanów, Bieżanów-Prokocim, Kraków, województwo małopolskie, 30-851, Polska;(50.0216944, 20.0292567, 0.0);50.0216944;20.0292567;0.0;POINT (573707.8040077245 239887.1503805425)
490;Mieszkanie 35,25 m2 Kraków;Kraków , Bieżanów-Prokocim, Prokocim;2 pokoje;296100.0;35.25;8400.0;https://www.otodom.pl/oferta/mieszkanie-35-25-m2-krakow-ID44gkF.html#ebf75736ab;2020-02-10 18:47:40.351869;"""Kraków""";"Kraków, Kraków , Bieżanów-Prokocim, Prokocim, ""Kraków""";Kraków Bieżanów, Stacyjna, Bieżanów, Bieżanów-Prokocim, Kraków, województwo małopolskie, 30-851, Polska;(50.0216944, 20.0292567, 0.0);50.0216944;20.0292567;0.0;POINT (573707.8040077245 239887.1503805425)
497;Na sprzedaż 2 pok. mieszkanie Apartamenty Wielicka;Kraków , Bieżanów-Prokocim;2 pokoje;480000.0;48.7;9856.0;https://www.otodom.pl/oferta/na-sprzedaz-2-pok-mieszkanie-apartamenty-wielicka-ID44AKb.html#ebf75736ab;2020-02-10 18:47:40.352866;Wielicka;Kraków, Kraków , Bieżanów-Prokocim, Wielicka;Wielicka, Prokocim, Bieżanów-Prokocim, Kraków, województwo małopolskie, 30-820, Polska;(50.0180993, 19.9895841, 0.0);50.0180993;19.9895841;0.0;POINT (570872.0827279496 239449.2013470018)
518;Nowe! 3pok., I-VIp., Balkon, ok. ul. Opolskiej;Kraków , Prądnik Biały;3 pokoje;412870.0;50.35;8200.0;https://www.otodom.pl/oferta/nowe-3pok-i-vip-balkon-ok-ul-opolskiej-ID44Ayi.html#51deb94ee3;2020-02-10 18:47:41.487794;Nowe;Kraków, Kraków , Prądnik Biały, Nowe;Prądnik Biały, Kraków, województwo małopolskie, Polska;(50.1035684, 19.953603106301202, 0.0);50.1035684;19.953603106301202;0.0;POINT (568173.9969429389 248915.5791220115)
521;Nowe! 1pok., II-IVp., Balkon, ok. ul. Opolskiej;Kraków , Prądnik Biały;1 pokój;282152.0;27.13;10400.0;https://www.otodom.pl/oferta/nowe-1pok-ii-ivp-balkon-ok-ul-opolskiej-ID44AvD.html#51deb94ee3;2020-02-10 18:47:41.487794;Nowe;Kraków, Kraków , Prądnik Biały, Nowe;Prądnik Biały, Kraków, województwo małopolskie, Polska;(50.1035684, 19.953603106301202, 0.0);50.1035684;19.953603106301202;0.0;POINT (568173.9969429389 248915.5791220115)
527;Okazja! 4pok/Rondo Mateczne;Kraków , Podgórze;4 pokoje;720000.0;78.69;9150.0;https://www.otodom.pl/oferta/okazja-4pok-rondo-mateczne-ID44AuA.html#51deb94ee3;2020-02-10 18:47:41.488794;Matecznego;Kraków, Kraków , Podgórze, Matecznego;Rondo Antoniego Matecznego, Mateczny, Podgórze, Kraków, województwo małopolskie, 30-524, Polska;(50.0367797, 19.9405272, 0.0);50.0367797;19.9405272;0.0;POINT (567332.6572123085 241480.1638806006)
538;2 osobne pokoje Widok, Al. Pokoju - 44,4m2 balkon;Kraków , Grzegórzki, Dąbie;2 pokoje;435000.0;44.4;9797.0;https://www.otodom.pl/oferta/2-osobne-pokoje-widok-al-pokoju-44-4m2-balkon-ID43qgm.html#51deb94ee3;2020-02-10 18:47:41.489759;Widok;Kraków, Kraków , Grzegórzki, Dąbie, Widok;Widok, Dąbie, Grzegórzki, Kraków, województwo małopolskie, 31-567, Polska;(50.0573772, 19.9789268, 0.0);50.0573772;19.9789268;0.0;POINT (570051.6640617081 243804.857423231)
539;79m2 3pok z z garażem i piwnicą -Dobrego Pasterza;Kraków , Prądnik Czerwony;3 pokoje;620000.0;79.0;7848.0;https://www.otodom.pl/oferta/79m2-3pok-z-z-garazem-i-piwnica-dobrego-pasterza-ID43OY6.html#51deb94ee3;2020-02-10 18:47:41.489759;Pasterza;Kraków, Kraków , Prądnik Czerwony, Pasterza;Kościół pw. Pana Jezusa Dobrego Pasterza, 4, Dobrego Pasterza, Prądnik Czerwony, Kraków, województwo małopolskie, 31-416, Polska;(50.08851445, 19.95839608107648, 0.0);50.08851445;19.95839608107648;0.0;POINT (568538.1184385554 247246.7144761141)
542;4 pok.*możliwy podział na 2mieszkania*Rynek Główny;Kraków , Stare Miasto;3 pokoje;1985000.0;83.56;23755.0;https://www.otodom.pl/oferta/4-pok-mozliwy-podzial-na-2mieszkaniarynek-glowny-ID44cZV.html#20f82b348a;2020-02-10 18:47:42.536374;Główny;Kraków, Kraków , Stare Miasto, Główny;Kraków Główny, Peron 3, Wesoła, Stare Miasto, Kraków, województwo małopolskie, 30-901, Polska;(50.0686663, 19.947802, 0.0);50.0686663;19.947802;0.0;POINT (567808.5033167193 245030.9240660574)
543;Meissnera 3 pok 59m2 od strony skweru;Kraków , małopolskie;3 pokoje;539000.0;59.3;9089.0;https://www.otodom.pl/oferta/meissnera-3-pok-59m2-od-strony-skweru-ID44h4p.html#20f82b348a;2020-02-10 18:47:42.536374;Meissnera;Kraków, Kraków , małopolskie, Meissnera;Meissnera, Wieczysta, Prądnik Czerwony, Kraków, województwo małopolskie, Polska;(50.0747583, 19.979541765513375, 0.0);50.0747583;19.979541765513375;0.0;POINT (570070.3419826203 245737.3370362194)
549;Mieszkanie z dużym ogródkiem w Nowym Bieżanowie;Kraków , Bieżanów-Prokocim, Bieżanów;2 pokoje;497000.0;48.12;10328.0;https://www.otodom.pl/oferta/mieszkanie-z-duzym-ogrodkiem-w-nowym-biezanowie-ID42wvA.html#20f82b348a;2020-02-10 18:47:42.536374;Nowy;Kraków, Kraków , Bieżanów-Prokocim, Bieżanów, Nowy;Bieżanów, Bieżanów-Prokocim, Kraków, województwo małopolskie, Polska;(50.0160061, 20.0372002, 0.0);50.0160061;20.0372002;0.0;POINT (574285.4193550048 239262.7663871311)
552;3 pokojowe mieszkanie Ruczaj Dębniki z tarasem;Kraków , Dębniki, Ruczaj;3 pokoje;459000.0;59.93;7659.0;https://www.otodom.pl/oferta/3-pokojowe-mieszkanie-ruczaj-debniki-z-tarasem-ID435wT.html#20f82b348a;2020-02-10 18:47:42.536374;Ruczaj;Kraków, Kraków , Dębniki, Ruczaj, Ruczaj;Ruczaj, Osiedle Ruczaj-Zaborze, Dębniki, Kraków, województwo małopolskie, 30-409, Polska;(50.0259495, 19.9198508, 0.0);50.0259495;19.9198508;0.0;POINT (565867.2616859295 240257.9741840241)
592;Gotowe 3 pokoje, zielona część Bronowic;Kraków , Prądnik Biały, Bronowice Wielkie;3 pokoje;396000.0;57.0;6947.0;https://www.otodom.pl/oferta/gotowe-3-pokoje-zielona-czesc-bronowic-ID44Adp.html#310b8f369d;2020-02-10 18:47:43.619285;Dzielna;Kraków, Kraków , Prądnik Biały, Bronowice Wielkie, Dzielna;Dzielna, Bronowice Wielkie, Prądnik Biały, Kraków, województwo małopolskie, 31-346, Polska;(50.0985888, 19.8879762, 0.0);50.0985888;19.8879762;0.0;POINT (563488.9167097276 248304.2412467012)
596;Mieszkanie, 62,22 m², Kraków;Kraków , Dębniki;3 pokoje;555000.0;62.22;8920.0;https://www.otodom.pl/oferta/mieszkanie-62-22-m-krakow-ID42Onc.html#2cbfc0dffb;2020-02-10 18:47:44.672782;"""Kraków""";"Kraków, Kraków , Dębniki, ""Kraków""";Kraków Sidzina, Topografów, Sidzina, Dębniki, Kraków, województwo małopolskie, 30-399, Polska;(49.9855309, 19.8746169, 0.0);49.9855309;19.8746169;0.0;POINT (562680.8089087415 235726.6111213788)
600;3 pokoje, Dwa Tarasy, Ruczaj, okol. ul. Chmielenie;Kraków , Dębniki, Ruczaj;3 pokoje;720000.0;80.0;9000.0;https://www.otodom.pl/oferta/3-pokoje-dwa-tarasy-ruczaj-okol-ul-chmielenie-ID434jm.html#2cbfc0dffb;2020-02-10 18:47:44.672782;Ruczaj;Kraków, Kraków , Dębniki, Ruczaj, Ruczaj;Ruczaj, Osiedle Ruczaj-Zaborze, Dębniki, Kraków, województwo małopolskie, 30-409, Polska;(50.0259495, 19.9198508, 0.0);50.0259495;19.9198508;0.0;POINT (565867.2616859295 240257.9741840241)
601;Mieszkanie, 21 m², Kraków;Kraków , Bieżanów-Prokocim, Bieżanów;1 pokój;215000.0;21.0;10238.0;https://www.otodom.pl/oferta/mieszkanie-21-m-krakow-ID41Ody.html#2cbfc0dffb;2020-02-10 18:47:44.672782;"""Kraków""";"Kraków, Kraków , Bieżanów-Prokocim, Bieżanów, ""Kraków""";Kraków Bieżanów, Stacyjna, Bieżanów, Bieżanów-Prokocim, Kraków, województwo małopolskie, 30-851, Polska;(50.0216944, 20.0292567, 0.0);50.0216944;20.0292567;0.0;POINT (573707.8040077245 239887.1503805425)
603;Mieszkanie, 53,63 m², Kraków;Kraków , Podgórze;2 pokoje;533404.0;53.63;9946.0;https://www.otodom.pl/oferta/mieszkanie-53-63-m-krakow-ID42c8S.html#2cbfc0dffb;2020-02-10 18:47:44.672782;"""Kraków""";"Kraków, Kraków , Podgórze, ""Kraków""";Kraków Płaszów, Peron 2 - moderniacja, Płaszów, Podgórze, Kraków, województwo małopolskie, 30-902, Polska;(50.0345327, 19.9754459, 0.0);50.0345327;19.9754459;0.0;POINT (569835.7166101226 241262.450246132)
634;Prokocim: duże, dla rodziny lub na gabinet/biuro;Kraków , Bieżanów-Prokocim;3 pokoje;735000.0;96.37;7627.0;https://www.otodom.pl/oferta/prokocim-duze-dla-rodziny-lub-na-gabinet-biuro-ID436vR.html#d3fc194328;2020-02-10 18:47:45.689548;Rodziny;Kraków, Kraków , Bieżanów-Prokocim, Rodziny;Kościół pw. Najświętszej Rodziny, 1, Aleksandry, Nowy Bieżanów, Bieżanów-Prokocim, Kraków, województwo małopolskie, 30-837, Polska;(50.0154821, 20.018503149418603, 0.0);50.0154821;20.018503149418603;0.0;POINT (572947.1340387621 239186.1161751505)
636;Mieszkanie, 76 m², Kraków;Kraków , Dębniki, Ruczaj;3 pokoje;849000.0;76.0;11171.0;https://www.otodom.pl/oferta/mieszkanie-76-m-krakow-ID43FeB.html#d3fc194328;2020-02-10 18:47:45.689548;"""Kraków""";"Kraków, Kraków , Dębniki, Ruczaj, ""Kraków""";Przychodnia NZOZ Kraków - Południe, Zachodnia, Osiedle Ruczaj-Zaborze, Dębniki, Kraków, województwo małopolskie, 30-350, Polska;(50.0260635, 19.9047378, 0.0);50.0260635;19.9047378;0.0;POINT (564784.9356098109 240257.4394052504)
637;Ruczaj - 4 pokoje, 2 balkony + winda i piwnica;Kraków , Dębniki, Ruczaj;4 pokoje;621000.0;67.2;9241.0;https://www.otodom.pl/oferta/ruczaj-4-pokoje-2-balkony-winda-i-piwnica-ID44l8R.html#d3fc194328;2020-02-10 18:47:45.689548;Ruczaj;Kraków, Kraków , Dębniki, Ruczaj, Ruczaj;Ruczaj, Osiedle Ruczaj-Zaborze, Dębniki, Kraków, województwo małopolskie, 30-409, Polska;(50.0259495, 19.9198508, 0.0);50.0259495;19.9198508;0.0;POINT (565867.2616859295 240257.9741840241)
638;Kurdwanów Witosa - jednopokojowe z balkonem;Kraków , Podgórze Duchackie, Kurdwanów;1 pokój;273500.0;34.0;8044.0;https://www.otodom.pl/oferta/kurdwanow-witosa-jednopokojowe-z-balkonem-ID44A3E.html#d3fc194328;2020-02-10 18:47:45.689548;Witosa;Kraków, Kraków , Podgórze Duchackie, Kurdwanów, Witosa;Witosa, Kurdwanów, Podgórze Duchackie, Kraków, województwo małopolskie, Polska;(50.01241645, 19.957117557158405, 0.0);50.01241645;19.957117557158405;0.0;POINT (568555.0158340409 238787.2895417269)
639;Wiślane Tarasy 2.0 | Grzegórzecka | Eng;Kraków , Grzegórzki;1 pokój;610000.0;40.6;15025.0;https://www.otodom.pl/oferta/wislane-tarasy-2-0-grzegorzecka-eng-ID44A3w.html#d3fc194328;2020-02-10 18:47:45.689548;Wiślana;Kraków, Kraków , Grzegórzki, Wiślana;Mierzeja Wiślana, Mały Płaszów, Podgórze, Kraków, województwo małopolskie, 30-716, Polska;(50.038134, 20.0042085, 0.0);50.038134;20.0042085;0.0;POINT (571889.5218590654 241689.9986086423)
643;mieszkanie przy ul. Filipowicza na Kurdwanowie;Kraków , Podgórze Duchackie, Kurdwanów;3 pokoje;459000.0;57.0;8053.0;https://www.otodom.pl/oferta/mieszkanie-przy-ul-filipowicza-na-kurdwanowie-ID444jF.html#d3fc194328;2020-02-10 18:47:45.690545;Filipowicza;Kraków, Kraków , Podgórze Duchackie, Kurdwanów, Filipowicza;Generała Juliana Filipowicza, Kurdwanów, Podgórze Duchackie, Kraków, województwo małopolskie, 30-613, Polska;(50.0110906, 19.9454873, 0.0);50.0110906;19.9454873;0.0;POINT (567723.857332106 238629.3248540154)
645;Mieszkanie, 47,80 m², Kraków;Kraków , Prądnik Biały;2 pokoje;329900.0;47.8;6902.0;https://www.otodom.pl/oferta/mieszkanie-47-80-m-krakow-ID44p4Q.html#d3fc194328;2020-02-10 18:47:45.690545;"""Kraków""";"Kraków, Kraków , Prądnik Biały, ""Kraków""";Obiekt Radionawigacyjny Krakow NDB, Prądnik Biały, Kraków, województwo małopolskie, Polska;(50.09566385, 19.912793398315383, 0.0);50.09566385;19.912793398315383;0.0;POINT (565267.2553505547 248000.5239568567)
646;Prądnik Czerwony 2 pokoje po remoncie , właściciel;Kraków , Prądnik Czerwony;2 pokoje;369000.0;32.0;11531.0;https://www.otodom.pl/oferta/pradnik-czerwony-2-pokoje-po-remoncie-wlasciciel-ID44it5.html#d3fc194328;2020-02-10 18:47:45.690545;Prądnika;Kraków, Kraków , Prądnik Czerwony, Prądnika;Enklawa Prądnika, Prądnik Czerwony, Kraków, województwo małopolskie, Polska;(50.0933468, 19.98679355896063, 0.0);50.0933468;19.98679355896063;0.0;POINT (570561.7860403393 247810.2744327188)
650;Mieszkanie, 90,74 m², Kraków;Kraków , Stare Miasto;4 pokoje;1800000.0;90.74;19837.0;https://www.otodom.pl/oferta/mieszkanie-90-74-m-krakow-ID44n4v.html#20cabf8902;2020-02-10 18:47:46.666217;"""Kraków""";"Kraków, Kraków , Stare Miasto, ""Kraków""";Kraków, województwo małopolskie, Polska;(50.0619474, 19.9368564, 0.0);50.0619474;19.9368564;0.0;POINT (567034.7997178583 244274.2426178176)
652;Mieszkanie, 37,47 m², Kraków;Kraków , Bieżanów-Prokocim;2 pokoje;325000.0;37.47;8674.0;https://www.otodom.pl/oferta/mieszkanie-37-47-m-krakow-ID44w2O.html#20cabf8902;2020-02-10 18:47:46.667214;"""Kraków""";"Kraków, Kraków , Bieżanów-Prokocim, ""Kraków""";Kraków Bieżanów, Stacyjna, Bieżanów, Bieżanów-Prokocim, Kraków, województwo małopolskie, 30-851, Polska;(50.0216944, 20.0292567, 0.0);50.0216944;20.0292567;0.0;POINT (573707.8040077245 239887.1503805425)
654;Ruczaj, 3-pokoje, garaż;Kraków , Dębniki, Ruczaj;3 pokoje;539999.0;66.4;8133.0;https://www.otodom.pl/oferta/ruczaj-3-pokoje-garaz-ID44A2n.html#20cabf8902;2020-02-10 18:47:46.667214;Ruczaj;Kraków, Kraków , Dębniki, Ruczaj, Ruczaj;Ruczaj, Osiedle Ruczaj-Zaborze, Dębniki, Kraków, województwo małopolskie, 30-409, Polska;(50.0259495, 19.9198508, 0.0);50.0259495;19.9198508;0.0;POINT (565867.2616859295 240257.9741840241)
655;Mieszkanie, 21,75 m², Kraków;Kraków , Prądnik Czerwony;1 pokój;198000.0;21.75;9103.0;https://www.otodom.pl/oferta/mieszkanie-21-75-m-krakow-ID44yX6.html#20cabf8902;2020-02-10 18:47:46.667214;"""Kraków""";"Kraków, Kraków , Prądnik Czerwony, ""Kraków""";Lądowisko Rakowice-Czyżyny, Stefana Jurczaka, Czyżyny, Kraków, województwo małopolskie, 31-634, Polska;(50.0846957, 19.9886787, 0.0);50.0846957;19.9886787;0.0;POINT (570709.3112874664 246850.4873105474)
656;Komfortowy apartament, Podgórze ul. Limanowskiego;Kraków , Podgórze, Stare Podgórze;3 pokoje;1100000.0;125.0;8800.0;https://www.otodom.pl/oferta/komfortowy-apartament-podgorze-ul-limanowskiego-ID444jJ.html#20cabf8902;2020-02-10 18:47:46.667214;Limanowskiego;Kraków, Kraków , Podgórze, Stare Podgórze, Limanowskiego;Limanowskiego, Bolesława Limanowskiego, Podgórze, Kraków, województwo małopolskie, 30-551, Polska;(50.0449752, 19.9559492, 0.0);50.0449752;19.9559492;0.0;POINT (568425.0550821114 242405.0938453879)
658;2 pokojowe 52m2 przy ul. Łokietka, Krowodrza;Kraków , Krowodrza;2 pokoje;546000.0;52.0;10500.0;https://www.otodom.pl/oferta/2-pokojowe-52m2-przy-ul-lokietka-krowodrza-ID44qKJ.html#20cabf8902;2020-02-10 18:47:46.668212;Łokietka;Kraków, Kraków , Krowodrza, Łokietka;Łokietka, Władysława Łokietka, Azory, Prądnik Biały, Kraków, województwo małopolskie, 31-279, Polska;(50.085377, 19.9235123, 0.0);50.085377;19.9235123;0.0;POINT (566047.8126358264 246866.5586777506)
660;1 pokojowe, 20m2, Krowoderska, Stare Miasto;Kraków , Stare Miasto;1 pokój;299000.0;18.5;16162.0;https://www.otodom.pl/oferta/1-pokojowe-20m2-krowoderska-stare-miasto-ID43KX2.html#20cabf8902;2020-02-10 18:47:46.668212;Krowoderska;Kraków, Kraków , Stare Miasto, Krowoderska;Krowoderska, Kleparz, Stare Miasto, Kraków, województwo małopolskie, 32-158, Polska;(50.0723986, 19.9317322, 0.0);50.0723986;19.9317322;0.0;POINT (566653.6674877633 245431.3082135739)
661;Apartament na Ruczaju z panoramą na cały Krakow;Kraków , Dębniki, Ruczaj;2 pokoje;1170000.0;123.57;9468.0;https://www.otodom.pl/oferta/apartament-na-ruczaju-z-panorama-na-caly-krakow-ID44pjH.html#20cabf8902;2020-02-10 18:47:46.668212;Ruczaj;Kraków, Kraków , Dębniki, Ruczaj, Ruczaj;Ruczaj, Osiedle Ruczaj-Zaborze, Dębniki, Kraków, województwo małopolskie, 30-409, Polska;(50.0259495, 19.9198508, 0.0);50.0259495;19.9198508;0.0;POINT (565867.2616859295 240257.9741840241)
665;Dębniki | Madalińskiego | Widok na Wisłę | 3 Pok;Kraków , Dębniki;3 pokoje;1317000.0;65.9;19985.0;https://www.otodom.pl/oferta/debniki-madalinskiego-widok-na-wisle-3-pok-ID44A1s.html#20cabf8902;2020-02-10 18:47:46.669209;Dębnicki;Kraków, Kraków , Dębniki, Dębnicki;Park Dębnicki, Dębniki, Kraków, województwo małopolskie, Polska;(50.0495234, 19.91693092494888, 0.0);50.0495234;19.91693092494888;0.0;POINT (565626.040058322 242875.6318850024)
669;Piękne i przestronne 3 pokoje przy ul.Stańczyka;Kraków , Bronowice, Bronowice Małe;3 pokoje;749000.0;79.32;9443.0;https://www.otodom.pl/oferta/piekne-i-przestronne-3-pokoje-przy-ul-stanczyka-ID43C0Y.html#20cabf8902;2020-02-10 18:47:46.669209;Stańczyka;Kraków, Kraków , Bronowice, Bronowice Małe, Stańczyka;Stańczyka, Future City, Bronowice, Kraków, województwo małopolskie, 30-126, Polska;(50.078487, 19.8941722, 0.0);50.078487;19.8941722;0.0;POINT (563958.6630885233 246075.2012641681)
670;SPRZEDAŻ mieszkania 47m2 (Żywiecka) BEZPOŚREDNIO;Kraków , Łagiewniki-Borek Fałęcki, Borek Fałęcki;2 pokoje;373000.0;47.0;7936.0;https://www.otodom.pl/oferta/sprzedaz-mieszkania-47m2-zywiecka-bezposrednio-ID43HTR.html#20cabf8902;2020-02-10 18:47:46.670215;Żywiecka;Kraków, Kraków , Łagiewniki-Borek Fałęcki, Borek Fałęcki, Żywiecka;Żywiecka, Borek Fałęcki, Łagiewniki-Borek Fałęcki, Kraków, województwo małopolskie, 30-427, Polska;(50.0144002, 19.9186276, 0.0);50.0144002;19.9186276;0.0;POINT (565795.4463761736 238973.2027133685)
671;3pok 64m2 Prądnik Biały Pachońskiego Wyki balkon;Kraków , Prądnik Biały;3 pokoje;440000.0;63.7;6907.0;https://www.otodom.pl/oferta/3pok-64m2-pradnik-bialy-pachonskiego-wyki-balkon-ID43aco.html#20cabf8902;2020-02-10 18:47:46.670215;Prądnika;Kraków, Kraków , Prądnik Biały, Prądnika;Prądnik Biały, Kraków, województwo małopolskie, Polska;(50.0955225, 19.9283169, 0.0);50.0955225;19.9283169;0.0;POINT (566377.4070532473 247998.4942823648)
672;Osiedle Na Lotnisku, 2-pok, 36 m2;Kraków , Bieńczyce;2 pokoje;285000.0;36.4;7830.0;https://www.otodom.pl/oferta/osiedle-na-lotnisku-2-pok-36-m2-ID43acf.html#20cabf8902;2020-02-10 18:47:46.670215;Osiedle;Kraków, Kraków , Bieńczyce, Osiedle;Bieńczyce, Kraków, województwo małopolskie, 31-831, Polska;(50.0866667, 20.0319444, 0.0);50.0866667;20.0319444;0.0;POINT (573800.5466313295 247111.4163682498)
677;Rynek Podgórski, 2-pokoje, 37,5m2, klimatyzacja.;Kraków , Podgórze, Stare Podgórze;2 pokoje;480000.0;37.5;12800.0;https://www.otodom.pl/oferta/rynek-podgorski-2-pokoje-37-5m2-klimatyzacja-ID43E4F.html#414bc0acc3;2020-02-10 18:47:48.073877;Rynek;Kraków, Kraków , Podgórze, Stare Podgórze, Rynek;Rynek Podgórski, Podgórze, Kraków, województwo małopolskie, Polska;(50.0441574, 19.949252372515176, 0.0);50.0441574;19.949252372515176;0.0;POINT (567946.8708557974 242308.0862895818)
678;3 pok. ul. Loretańska - Stare Miasto do negocjacji;Kraków , Stare Miasto;3 pokoje;948000.0;92.18;10284.0;https://www.otodom.pl/oferta/3-pok-ul-loretanska-stare-miasto-do-negocjacji-ID44bLa.html#414bc0acc3;2020-02-10 18:47:48.073877;Loretańska;Kraków, Kraków , Stare Miasto, Loretańska;Loretańska, Nowy Świat, Stare Miasto, Kraków, województwo małopolskie, 31-116, Polska;(50.0620293, 19.9304369, 0.0);50.0620293;19.9304369;0.0;POINT (566575.3595488591 244277.6063719196)
679;Stare Miasto, ul. Podwale;Kraków , Stare Miasto;2 pokoje;1290000.0;68.0;18971.0;https://www.otodom.pl/oferta/stare-miasto-ul-podwale-ID44m7k.html#414bc0acc3;2020-02-10 18:47:48.073877;Podwale;Kraków, Kraków , Stare Miasto, Podwale;Podwale, Stare Miasto, Kraków, województwo małopolskie, 31-113, Polska;(50.0624788, 19.9319823, 0.0);50.0624788;19.9319823;0.0;POINT (566685.3123566043 244328.9462944614)
680;Mieszkanie, 84,47 m², Kraków;Kraków , Stare Miasto;2 pokoje;749000.0;84.47;8867.0;https://www.otodom.pl/oferta/mieszkanie-84-47-m-krakow-ID44qmu.html#414bc0acc3;2020-02-10 18:47:48.073877;"""Kraków""";"Kraków, Kraków , Stare Miasto, ""Kraków""";Kraków, województwo małopolskie, Polska;(50.0619474, 19.9368564, 0.0);50.0619474;19.9368564;0.0;POINT (567034.7997178583 244274.2426178176)
681;Zabłocie - nowa inwestycja mieszkaniowa;Kraków , Podgórze, Zabłocie;3 pokoje;949000.0;67.55;14049.0;https://www.otodom.pl/oferta/zablocie-nowa-inwestycja-mieszkaniowa-ID44qkN.html#414bc0acc3;2020-02-10 18:47:48.073877;Zabłocie;Kraków, Kraków , Podgórze, Zabłocie, Zabłocie;Zabłocie, Podgórze, Kraków, województwo małopolskie, 30-701, Polska;(50.050241, 19.9619043, 0.0);50.050241;19.9619043;0.0;POINT (568843.7698691209 242995.8532821322)
682;Lokal 47,8m2 na ul. Białoprądnickiej;Kraków , Prądnik Biały;2 pokoje;329900.0;47.0;7019.0;https://www.otodom.pl/oferta/lokal-47-8m2-na-ul-bialopradnickiej-ID44A0q.html#414bc0acc3;2020-02-10 18:47:48.073877;Białoprądnicka;Kraków, Kraków , Prądnik Biały, Białoprądnicka;Białoprądnicka, Prądnik Biały, Kraków, województwo małopolskie, 31-233, Polska;(50.0966502, 19.9331089, 0.0);50.0966502;19.9331089;0.0;POINT (566718.477836541 248128.1086392161)
683;Mieszkanie 3 pokojowe Bieńczyce;Kraków , Bieńczyce;3 pokoje;375000.0;56.0;6696.0;https://www.otodom.pl/oferta/mieszkanie-3-pokojowe-bienczyce-ID44A02.html#414bc0acc3;2020-02-10 18:47:48.073877;Bieńczyckie;Kraków, Kraków , Bieńczyce, Bieńczyckie;Planty Bieńczyckie, Bieńczyce, Kraków, województwo małopolskie, 31-845, Polska;(50.08937935, 20.011360169078962, 0.0);50.08937935;20.011360169078962;0.0;POINT (572324.3890057355 247392.7915977798)
684;Nowe! 2pok., I-VIp., Balkon, ok. ul. Opolskiej;Kraków , Prądnik Biały;2 pokoje;325936.5;33.09;9850.0;https://www.otodom.pl/oferta/nowe-2pok-i-vip-balkon-ok-ul-opolskiej-ID44zZY.html#414bc0acc3;2020-02-10 18:47:48.074875;Nowe;Kraków, Kraków , Prądnik Biały, Nowe;Prądnik Biały, Kraków, województwo małopolskie, Polska;(50.1035684, 19.953603106301202, 0.0);50.1035684;19.953603106301202;0.0;POINT (568173.9969429389 248915.5791220115)
685;Nowe! 2pok., IIp., Balkon, ok. ul. Opolskiej;Kraków , Prądnik Biały;2 pokoje;314397.0;34.74;9050.0;https://www.otodom.pl/oferta/nowe-2pok-iip-balkon-ok-ul-opolskiej-ID44zZX.html#414bc0acc3;2020-02-10 18:47:48.074875;Nowe;Kraków, Kraków , Prądnik Biały, Nowe;Prądnik Biały, Kraków, województwo małopolskie, Polska;(50.1035684, 19.953603106301202, 0.0);50.1035684;19.953603106301202;0.0;POINT (568173.9969429389 248915.5791220115)
687;Mieszkanie Fredry;Kraków , Podgórze;3 pokoje;520000.0;55.5;9369.0;https://www.otodom.pl/oferta/mieszkanie-fredry-ID44xfv.html#414bc0acc3;2020-02-10 18:47:48.074875;Fredry;Kraków, Kraków , Podgórze, Fredry;Aleksandra Fredry, Podgórze, Kraków, województwo małopolskie, 30-416, Polska;(50.0283402, 19.9409364, 0.0);50.0283402;19.9409364;0.0;POINT (567373.7591001844 240542.488660139)
688;3-pok 76 m2 *Kazimierza Wielkiego*;Kraków , Krowodrza;3 pokoje;610000.0;76.3;7995.0;https://www.otodom.pl/oferta/3-pok-76-m2-kazimierza-wielkiego-ID44zZd.html#414bc0acc3;2020-02-10 18:47:48.074875;Kazimierza;Kraków, Kraków , Krowodrza, Kazimierza;Kazimierza Wielkiego, Łobzów, Krowodrza, Kraków, województwo małopolskie, 30-053, Polska;(50.0747782, 19.9130924, 0.0);50.0747782;19.9130924;0.0;POINT (565317.0125641699 245679.3376280712)
690;3-pokoje 76 m2 z 20 metrowym tarasem, Bujaka;Kraków , Podgórze Duchackie, Kurdwanów;3 pokoje;579000.0;71.0;8155.0;https://www.otodom.pl/oferta/3-pokoje-76-m2-z-20-metrowym-tarasem-bujaka-ID44zZb.html#414bc0acc3;2020-02-10 18:47:48.074875;Bujaka;Kraków, Kraków , Podgórze Duchackie, Kurdwanów, Bujaka;Bujaka, Kurdwanów, Podgórze Duchackie, Kraków, województwo małopolskie, Polska;(50.009635200000005, 19.948395750000003, 0.0);50.009635200000005;19.948395750000003;0.0;POINT (567934.2337184104 238470.1971203024)
692;3-pok mieszkanie z widokiem na park. Witosa;Kraków , Podgórze Duchackie, Kurdwanów;3 pokoje;500000.0;60.4;8278.0;https://www.otodom.pl/oferta/3-pok-mieszkanie-z-widokiem-na-park-witosa-ID44zyA.html#414bc0acc3;2020-02-10 18:47:48.074875;Witosa;Kraków, Kraków , Podgórze Duchackie, Kurdwanów, Witosa;Witosa, Kurdwanów, Podgórze Duchackie, Kraków, województwo małopolskie, Polska;(50.01241645, 19.957117557158405, 0.0);50.01241645;19.957117557158405;0.0;POINT (568555.0158340409 238787.2895417269)
694;2-pokoje, 34 m2, Kozłówek, Nowosądecka;Kraków , Bieżanów-Prokocim, Kozłówek;2 pokoje;335000.0;34.0;9853.0;https://www.otodom.pl/oferta/2-pokoje-34-m2-kozlowek-nowosadecka-ID44zYd.html#414bc0acc3;2020-02-10 18:47:48.074875;Nowosądecka;Kraków, Kraków , Bieżanów-Prokocim, Kozłówek, Nowosądecka;Nowosądecka, Osiedle Kozłówek, Bieżanów-Prokocim, Kraków, województwo małopolskie, 30-641, Polska;(50.0231038, 19.977942, 0.0);50.0231038;19.977942;0.0;POINT (570031.0365054669 239994.4749957817)
698;Dwupoziomowe przy Armii Krajowej. Od zaraz.;Kraków , Bronowice, Bronowice Małe;4 pokoje;850000.0;75.92;11196.0;https://www.otodom.pl/oferta/dwupoziomowe-przy-armii-krajowej-od-zaraz-ID44zyB.html#414bc0acc3;2020-02-10 18:47:48.074875;Krajowej;Kraków, Kraków , Bronowice, Bronowice Małe, Krajowej;Armii Krajowej, Bronowice Małe, Bronowice, Kraków, województwo małopolskie, 31-342, Polska;(50.0871155, 19.8911354, 0.0);50.0871155;19.8911354;0.0;POINT (563730.0073787255 247031.6672410835)
699;2 pokojowe z osobną kuchnią 0s. Piastów;Kraków , Mistrzejowice;2 pokoje;315000.0;38.0;8289.0;https://www.otodom.pl/oferta/2-pokojowe-z-osobna-kuchnia-0s-piastow-ID444jg.html#414bc0acc3;2020-02-10 18:47:48.074875;Piastów;Kraków, Kraków , Mistrzejowice, Piastów;Osiedle Piastów, Mistrzejowice, Kraków, województwo małopolskie, Polska;(50.0980554, 20.0171049949883, 0.0);50.0980554;20.0171049949883;0.0;POINT (572722.0722803086 248362.7125982968)
700;3 pok fajny standard ul.Pszczelna;Kraków , Dębniki, Ruczaj;3 pokoje;495000.0;60.0;8250.0;https://www.otodom.pl/oferta/3-pok-fajny-standard-ul-pszczelna-ID43sC0.html#414bc0acc3;2020-02-10 18:47:48.075872;Pszczelna;Kraków, Kraków , Dębniki, Ruczaj, Pszczelna;Pszczelna, Kobierzyn, Dębniki, Kraków, województwo małopolskie, 30-431, Polska;(50.0230155, 19.9166247, 0.0);50.0230155;19.9166247;0.0;POINT (565640.2538654616 239929.0250597214)
701;Kraków – Nowa Huta – os. Stalowe – 47 m2;Kraków , Nowa Huta;2 pokoje;335000.0;47.0;7128.0;https://www.otodom.pl/oferta/krakow-nowa-huta-os-stalowe-47-m2-ID44vUG.html#5c33b7fa5e;2020-02-10 18:47:50.006909;"""Kraków""";"Kraków, Kraków , Nowa Huta, ""Kraków""";Kraków Nowa Huta, Organki, Kombinat, Nowa Huta, Kraków, województwo małopolskie, 31-990, Polska;(50.0899571, 20.1269749, 0.0);50.0899571;20.1269749;0.0;POINT (580591.0830060896 247575.3607144151)
704;Apartament w wysokim standardzie- ul. Grzegórzecka;Kraków , Grzegórzki;2 pokoje;970000.0;53.57;18107.0;https://www.otodom.pl/oferta/apartament-w-wysokim-standardzie-ul-grzegorzecka-ID44dbG.html#5c33b7fa5e;2020-02-10 18:47:50.007906;Grzegórzecka;Kraków, Kraków , Grzegórzki, Grzegórzecka;Grzegórzecka, Grzegórzki, Kraków, województwo małopolskie, 31-539, Polska;(50.0567623, 19.9611326, 0.0);50.0567623;19.9611326;0.0;POINT (568779.2173764205 243719.9819600955)
710;Chełmońskiego | Bronowice | 3 Pok | 80m2 | Kw;Kraków , Bronowice;3 pokoje;830000.0;80.0;10375.0;https://www.otodom.pl/oferta/chelmonskiego-bronowice-3-pok-80m2-kw-ID44qq7.html#5c33b7fa5e;2020-02-10 18:47:50.008905;Chełmońskiego;Kraków, Kraków , Bronowice, Chełmońskiego;Józefa Chełmońskiego, Bronowice Wielkie, Prądnik Biały, Kraków, województwo małopolskie, 31-348, Polska;(50.0970811, 19.8942649, 0.0);50.0970811;19.8942649;0.0;POINT (563940.5492672679 248142.0244571455)
711;Bardzo ładne mieszkanie - ul. J. Łepkowskiego;Kraków , Prądnik Czerwony;2 pokoje;453840.0;56.73;8000.0;https://www.otodom.pl/oferta/bardzo-ladne-mieszkanie-ul-j-lepkowskiego-ID44zSQ.html#5c33b7fa5e;2020-02-10 18:47:50.008905;Łepkowskiego;Kraków, Kraków , Prądnik Czerwony, Łepkowskiego;Józefa Łepkowskiego, Prądnik Czerwony, Kraków, województwo małopolskie, 31-423, Polska;(50.0884147, 19.963569, 0.0);50.0884147;19.963569;0.0;POINT (568908.1881470648 247240.3867940204)
714;Nowa Inwestycja Kawalerek od 17m2 Ul Wileńska;Kraków , Prądnik Czerwony;1 pokój;150000.0;17.0;8824.0;https://www.otodom.pl/oferta/nowa-inwestycja-kawalerek-od-17m2-ul-wilenska-ID3Zr2E.html#5c33b7fa5e;2020-02-10 18:47:50.008905;Wileńska;Kraków, Kraków , Prądnik Czerwony, Wileńska;Wileńska, Rogatka Warszawska, Prądnik Czerwony, Kraków, województwo małopolskie, 31-425, Polska;(50.0829379, 19.9525652, 0.0);50.0829379;19.9525652;0.0;POINT (568129.0440596101 246621.5458540684)
716;Sprzedam Kawalerkę 16m2 Bieżanowska Stan Deweloper;Kraków , Bieżanów-Prokocim, Bieżanów;1 pokój;125000.0;15.0;8333.0;https://www.otodom.pl/oferta/sprzedam-kawalerke-16m2-biezanowska-stan-deweloper-ID4308T.html#5c33b7fa5e;2020-02-10 18:47:50.008905;Bieżanowska;Kraków, Kraków , Bieżanów-Prokocim, Bieżanów, Bieżanowska;Bieżanowska, Bieżanów, Bieżanów-Prokocim, Kraków, województwo małopolskie, 30-851, Polska;(50.0183329, 20.0340652, 0.0);50.0183329;20.0340652;0.0;POINT (574057.3146061982 239518.2765094079)
719;Rozkładowe 3 pokoje Wola Duchacka po remocie;Kraków , Podgórze Duchackie;3 pokoje;420000.0;56.02;7497.0;https://www.otodom.pl/oferta/rozkladowe-3-pokoje-wola-duchacka-po-remocie-ID44zRl.html#5c33b7fa5e;2020-02-10 18:47:50.009901;Duchacka;Kraków, Kraków , Podgórze Duchackie, Duchacka;Kraków Bonarka, Kładka pieszo-rowerowa, Wola Duchacka, Podgórze Duchackie, Kraków, województwo małopolskie, 30-416, Polska;(50.0293189, 19.9462275, 0.0);50.0293189;19.9462275;0.0;POINT (567751.2342442736 240656.0522081703)
724;Mieszkanie do wprowadzenia - Rondo Matecznego;Kraków , Podgórze;1 pokój;369900.0;30.0;12330.0;https://www.otodom.pl/oferta/mieszkanie-do-wprowadzenia-rondo-matecznego-ID440Oz.html#5c33b7fa5e;2020-02-10 18:47:50.009901;Matecznego;Kraków, Kraków , Podgórze, Matecznego;Rondo Antoniego Matecznego, Mateczny, Podgórze, Kraków, województwo małopolskie, 30-524, Polska;(50.0367797, 19.9405272, 0.0);50.0367797;19.9405272;0.0;POINT (567332.6572123085 241480.1638806006)
739;Nowy apartament 63 wykończony Wrocałwska;Kraków , Krowodrza, Łobzów;3 pokoje;680000.0;63.0;10794.0;https://www.otodom.pl/oferta/nowy-apartament-63-wykonczony-wrocalwska-ID44pAZ.html#5ad8f2c5e0;2020-02-10 18:47:51.338238;Wrocławska;Kraków, Kraków , Krowodrza, Łobzów, Wrocławska;Wrocławska, Łobzów, Krowodrza, Kraków, województwo małopolskie, 31-306, Polska;(50.0816206, 19.9161413, 0.0);50.0816206;19.9161413;0.0;POINT (565525.7817667988 246442.54200745)
746;Mieszkanie Chełmońskiego Bronowice Residence 80m2;Kraków , Bronowice;3 pokoje;830000.0;80.0;10375.0;https://www.otodom.pl/oferta/mieszkanie-chelmonskiego-bronowice-residence-80m2-ID44lwP.html#5ad8f2c5e0;2020-02-10 18:47:51.339234;Chełmońskiego;Kraków, Kraków , Bronowice, Chełmońskiego;Józefa Chełmońskiego, Bronowice Wielkie, Prądnik Biały, Kraków, województwo małopolskie, 31-348, Polska;(50.0970811, 19.8942649, 0.0);50.0970811;19.8942649;0.0;POINT (563940.5492672679 248142.0244571455)
748;2 Pok Garderoba Garaż Balkon Cz. Prądnik Marchołta;Kraków , Prądnik Czerwony;2 pokoje;569000.0;50.4;11290.0;https://www.otodom.pl/oferta/2-pok-garderoba-garaz-balkon-cz-pradnik-marcholta-ID44mvc.html#5ad8f2c5e0;2020-02-10 18:47:51.339234;Prądnika;Kraków, Kraków , Prądnik Czerwony, Prądnika;Enklawa Prądnika, Prądnik Czerwony, Kraków, województwo małopolskie, Polska;(50.0933468, 19.98679355896063, 0.0);50.0933468;19.98679355896063;0.0;POINT (570561.7860403393 247810.2744327188)
751;Kazimierz - inwestycyjne 2 pokojowe;Kraków , Stare Miasto, Kazimierz;2 pokoje;635000.0;41.62;15257.0;https://www.otodom.pl/oferta/kazimierz-inwestycyjne-2-pokojowe-ID44zCK.html#5ad8f2c5e0;2020-02-10 18:47:51.340232;Kazimierza;Kraków, Kraków , Stare Miasto, Kazimierz, Kazimierza;Apartamenty Sekret Kazimierza, 34, Józefa, Kazimierz, Stare Miasto, Kraków, województwo małopolskie, 31-056, Polska;(50.0512307, 19.9469375, 0.0);50.0512307;19.9469375;0.0;POINT (567771.2149040747 243092.1779909022)
752;Mieszkanie, 63,10 m², Kraków;Kraków , Podgórze Duchackie, Kurdwanów;3 pokoje;432000.0;63.1;6846.0;https://www.otodom.pl/oferta/mieszkanie-63-10-m-krakow-ID44zC7.html#5ad8f2c5e0;2020-02-10 18:47:51.340232;"""Kraków""";"Kraków, Kraków , Podgórze Duchackie, Kurdwanów, ""Kraków""";Armatura Kraków, Chmielna, Kurdwanów, Podgórze Duchackie, Kraków, województwo małopolskie, 30-612, Polska;(50.01363825, 19.946986078385525, 0.0);50.01363825;19.946986078385525;0.0;POINT (567827.6246947531 238913.8516277932)
753;Mieszkanie, 60,40 m², Kraków;Kraków , Podgórze Duchackie, Kurdwanów;3 pokoje;510000.0;60.4;8444.0;https://www.otodom.pl/oferta/mieszkanie-60-40-m-krakow-ID44zC0.html#5ad8f2c5e0;2020-02-10 18:47:51.340232;"""Kraków""";"Kraków, Kraków , Podgórze Duchackie, Kurdwanów, ""Kraków""";Armatura Kraków, Chmielna, Kurdwanów, Podgórze Duchackie, Kraków, województwo małopolskie, 30-612, Polska;(50.01363825, 19.946986078385525, 0.0);50.01363825;19.946986078385525;0.0;POINT (567827.6246947531 238913.8516277932)
754;Kraków Nowa Huta os. Strusia - 3pokoje, 46,2m2;Kraków , Nowa Huta;3 pokoje;365000.0;46.2;7900.0;https://www.otodom.pl/oferta/krakow-nowa-huta-os-strusia-3pokoje-46-2m2-ID44zBT.html#5ad8f2c5e0;2020-02-10 18:47:51.340232;"""Kraków""";"Kraków, Kraków , Nowa Huta, ""Kraków""";Kraków Nowa Huta, Organki, Kombinat, Nowa Huta, Kraków, województwo małopolskie, 31-990, Polska;(50.0899571, 20.1269749, 0.0);50.0899571;20.1269749;0.0;POINT (580591.0830060896 247575.3607144151)
756;Przestronny apartament - ul. Grzegórzecka 102;Kraków , małopolskie;3 pokoje;980000.0;95.0;10316.0;https://www.otodom.pl/oferta/przestronny-apartament-ul-grzegorzecka-102-ID44s8y.html#a444703eac;2020-02-10 18:47:52.423895;Grzegórzecka;Kraków, Kraków , małopolskie, Grzegórzecka;Grzegórzecka, Grzegórzki, Kraków, województwo małopolskie, 31-539, Polska;(50.0567623, 19.9611326, 0.0);50.0567623;19.9611326;0.0;POINT (568779.2173764205 243719.9819600955)
758;Mieszkanie 3 pok. 61m2, Kużnicy Kołłątajowskiej;Kraków , Prądnik Biały;3 pokoje;485000.0;61.3;7912.0;https://www.otodom.pl/oferta/mieszkanie-3-pok-61m2-kuznicy-kollatajowskiej-ID44eCn.html#a444703eac;2020-02-10 18:47:52.423895;Kołłątajowskiej;Kraków, Kraków , Prądnik Biały, Kołłątajowskiej;Kuźnicy Kołłątajowskiej, Górka Narodowa, Prądnik Biały, Kraków, województwo małopolskie, 31-220, Polska;(50.1009196, 19.9593245, 0.0);50.1009196;19.9593245;0.0;POINT (568586.8003525125 248626.4028097093)
759;Mieszkanie, 43,82 m², Kraków;Kraków , Nowa Huta;2 pokoje;310000.0;43.82;7074.0;https://www.otodom.pl/oferta/mieszkanie-43-82-m-krakow-ID44zBm.html#a444703eac;2020-02-10 18:47:52.424892;"""Kraków""";"Kraków, Kraków , Nowa Huta, ""Kraków""";Kraków Nowa Huta, Organki, Kombinat, Nowa Huta, Kraków, województwo małopolskie, 31-990, Polska;(50.0899571, 20.1269749, 0.0);50.0899571;20.1269749;0.0;POINT (580591.0830060896 247575.3607144151)
760;Mieszkanie, 38,20 m², Kraków;Kraków , Nowa Huta;2 pokoje;336000.0;38.2;8796.0;https://www.otodom.pl/oferta/mieszkanie-38-20-m-krakow-ID44zAM.html#a444703eac;2020-02-10 18:47:52.424892;"""Kraków""";"Kraków, Kraków , Nowa Huta, ""Kraków""";Kraków Nowa Huta, Organki, Kombinat, Nowa Huta, Kraków, województwo małopolskie, 31-990, Polska;(50.0899571, 20.1269749, 0.0);50.0899571;20.1269749;0.0;POINT (580591.0830060896 247575.3607144151)
