;opis;dzielnica;pokoje;cena;metraz;cena_za_metr;link;data;ulica;lokator_ulica_dzielnica;geo_location;point;latitude;longitude;altitude;geometry
0;3 pokoje/Prądnik Biały/ Banacha/ Nowe-wykończone;Kraków , Prądnik Biały;3 pokoje;470000.0;51.5;9126.0;https://www.otodom.pl/oferta/3-pokoje-pradnik-bialy-banacha-nowe-wykonczone-ID44GVg.html#de3f47c1fe;2020-02-18 17:24:39.195812;Banacha;Kraków , Prądnik Biały, Banacha;Banacha, Aleja 29 Listopada, Górka Narodowa, Prądnik Biały, Kraków, województwo małopolskie, 31-236, Polska;(50.1015333, 19.9641367, 0.0);50.1015333;19.9641367;0.0;POINT (568929.9616772018 248699.0465558404)
5;Prądnik Czerwony -33m2 2pok parter;Kraków , Prądnik Czerwony;2 pokoje;407000.0;33.0;12333.0;https://www.otodom.pl/oferta/pradnik-czerwony-33m2-2pok-parter-ID44KzC.html#de3f47c1fe;2020-02-18 17:24:39.195812;Prądnika;Kraków , Prądnik Czerwony, Prądnika;Enklawa Prądnika, Prądnik Czerwony, Kraków, województwo małopolskie, Polska;(50.0933468, 19.98679355896063, 0.0);50.0933468;19.98679355896063;0.0;POINT (570561.7860403393 247810.2744327188)
6;Eleganckie mieszkanie 45m2 Grzegórzki;Kraków , małopolskie;2 pokoje;495000.0;45.0;11000.0;https://www.otodom.pl/oferta/eleganckie-mieszkanie-45m2-grzegorzki-ID44Kzz.html#de3f47c1fe;2020-02-18 17:24:39.195812;Grzegórzecka;Kraków , małopolskie, Grzegórzecka;Grzegórzecka, Grzegórzki, Kraków, województwo małopolskie, 31-539, Polska;(50.0567623, 19.9611326, 0.0);50.0567623;19.9611326;0.0;POINT (568779.2173764205 243719.9819600955)
11;Bezpośrednio, Kawalerka, Mistrzejowice;Kraków , Mistrzejowice;1 pokój;245000.0;27.48;8916.0;https://www.otodom.pl/oferta/bezposrednio-kawalerka-mistrzejowice-ID43m3i.html#de3f47c1fe;2020-02-18 17:24:39.195812;Mistrzejowicka;Kraków , Mistrzejowice, Mistrzejowicka;Mistrzejowicka, Mistrzejowice, Kraków, województwo małopolskie, 31-651, Polska;(50.0969093, 20.0259479, 0.0);50.0969093;20.0259479;0.0;POINT (573356.0700843487 248243.9720702069)
18;2-pokojowe Rydlówka;Kraków , Podgórze;2 pokoje;590000.0;59.0;10000.0;https://www.otodom.pl/oferta/2-pokojowe-rydlowka-ID44KtE.html#de3f47c1fe;2020-02-18 17:24:39.195812;Rydlówka;Kraków , Podgórze, Rydlówka;Rydlówka, Mateczny, Podgórze, Delegatura Kraków-Podgórze, Kraków, województwo małopolskie, 30-415, Polska;(50.0352782, 19.9349524, 0.0);50.0352782;19.9349524;0.0;POINT (566935.6490624668 241308.2663329504)
20;Wykończone mieszkanie aleja Pokoju 44 mkw;Kraków , Grzegórzki, Dąbie;2 pokoje;475376.0;44.0;10804.0;https://www.otodom.pl/oferta/wykonczone-mieszkanie-aleja-pokoju-44-mkw-ID43xr9.html#de3f47c1fe;2020-02-18 17:24:39.195812;Pokoju;Kraków , Grzegórzki, Dąbie, Pokoju;Aleja Pokoju, Dąbie, Grzegórzki, Kraków, województwo małopolskie, 31-311, Polska;(50.0596505, 19.9754432, 0.0);50.0596505;19.9754432;0.0;POINT (569799.0845970947 244054.2737237671)
21;Przestronny 2/3pok 64m2 ul. Szlak Angel City;Kraków , Stare Miasto;3 pokoje;850000.0;64.0;13281.0;https://www.otodom.pl/oferta/przestronny-2-3pok-64m2-ul-szlak-angel-city-ID43T95.html#de3f47c1fe;2020-02-18 17:24:39.195812;Szlak;Kraków , Stare Miasto, Szlak;Szlak, Kleparz, Stare Miasto, Kraków, województwo małopolskie, 31-154, Polska;(50.0704721, 19.9436211, 0.0);50.0704721;19.9436211;0.0;POINT (567506.8592848863 245227.8524382655)
28;*Nowa INWESTYCJA*Świetna lokalizacja!! Łagiewniki;Kraków , Łagiewniki-Borek Fałęcki;1 pokój;327000.0;34.41;9503.0;https://www.otodom.pl/oferta/nowa-inwestycjaswietna-lokalizacja-lagiewniki-ID41a9J.html#bcc2421ba9;2020-02-18 17:24:40.476759;Łagiewnicka;Kraków , Łagiewniki-Borek Fałęcki, Łagiewnicka;Łagiewnicka, Ludwinów, Podgórze, Delegatura Kraków-Podgórze, Kraków, województwo małopolskie, 30-417, Polska;(50.0318955, 19.9431169, 0.0);50.0318955;19.9431169;0.0;POINT (567524.9012258716 240939.6247071801)
37;Mieszkanie os. kozłówek ul. okólna 14;Kraków , Bieżanów-Prokocim, Kozłówek;2 pokoje;375000.0;45.5;8242.0;https://www.otodom.pl/oferta/mieszkanie-os-kozlowek-ul-okolna-14-ID44wqd.html#bcc2421ba9;2020-02-18 17:24:40.476759;Okólna;Kraków , Bieżanów-Prokocim, Kozłówek, Okólna;Okólna, Osiedle Kozłówek, Podgórze Duchackie, Delegatura Kraków-Podgórze, Kraków, województwo małopolskie, 30-681, Polska;(50.0164142, 19.9837781, 0.0);50.0164142;19.9837781;0.0;POINT (570458.7398329553 239256.4173786202)
39;Żabiniec 4 pok po remoncie dla inwestora;Kraków , Prądnik Biały, Żabiniec;4 pokoje;509000.0;52.0;9788.0;https://www.otodom.pl/oferta/zabiniec-4-pok-po-remoncie-dla-inwestora-ID44KnC.html#bcc2421ba9;2020-02-18 17:24:40.476759;Żabiniec;Kraków , Prądnik Biały, Żabiniec, Żabiniec;Żabiniec, Osiedle Żabiniec, Prądnik Biały, Kraków, województwo małopolskie, 31-215, Polska;(50.0821999, 19.9463442, 0.0);50.0821999;19.9463442;0.0;POINT (567685.1541646176 246533.8616589475)
40;3-pokoje, 64 m2 - Bronowice stan dweloperski;Kraków , Bronowice;3 pokoje;530000.0;63.7;8320.0;https://www.otodom.pl/oferta/3-pokoje-64-m2-bronowice-stan-dweloperski-ID44KmR.html#bcc2421ba9;2020-02-18 17:24:40.476759;Bronowicka;Kraków , Bronowice, Bronowicka;Bronowicka, Stara Krowodrza, Bronowice, Delegatura Kraków-Krowodrza, Kraków, województwo małopolskie, 30-084, Polska;(50.0769526, 19.9030181, 0.0);50.0769526;19.9030181;0.0;POINT (564593.4482024474 245912.2633061446)
54;Mieszkanie 2 pokoje, Mistrzejowice, TBS;Kraków , Mistrzejowice;2 pokoje;150000.0;41.0;3659.0;https://www.otodom.pl/oferta/mieszkanie-2-pokoje-mistrzejowice-tbs-ID44HDY.html#e7b1ebfb0e;2020-02-18 17:24:41.328667;Mistrzejowicka;Kraków , Mistrzejowice, Mistrzejowicka;Mistrzejowicka, Mistrzejowice, Kraków, województwo małopolskie, 31-651, Polska;(50.0969093, 20.0259479, 0.0);50.0969093;20.0259479;0.0;POINT (573356.0700843487 248243.9720702069)
57;Myśliwska Park, segment A, MD6;Kraków , Podgórze;6 pokoi;973029.0;177.56;5480.0;https://www.otodom.pl/oferta/mysliwska-park-segment-a-md6-ID42G0a.html#e7b1ebfb0e;2020-02-18 17:24:41.328667;Myśliwska;Kraków , Podgórze, Myśliwska;Myśliwska, Osiedle Lipska, Podgórze, Kraków, województwo małopolskie, 30-730, Polska;(50.0456691, 20.000135, 0.0);50.0456691;20.000135;0.0;POINT (571586.7051591821 242523.6080506146)
58;Myśliwska Park, segment A, MD8;Kraków , Podgórze;6 pokoi;973029.0;177.56;5480.0;https://www.otodom.pl/oferta/mysliwska-park-segment-a-md8-ID42G0b.html#e7b1ebfb0e;2020-02-18 17:24:41.328667;Myśliwska;Kraków , Podgórze, Myśliwska;Myśliwska, Osiedle Lipska, Podgórze, Kraków, województwo małopolskie, 30-730, Polska;(50.0456691, 20.000135, 0.0);50.0456691;20.000135;0.0;POINT (571586.7051591821 242523.6080506146)
60;Bieńczyce: 4 pokoje, doskonała lokalizacja;Kraków , Bieńczyce;4 pokoje;479000.0;64.0;7484.0;https://www.otodom.pl/oferta/bienczyce-4-pokoje-doskonala-lokalizacja-ID44Kgf.html#e7b1ebfb0e;2020-02-18 17:24:41.328667;Bieńczyckie;Kraków , Bieńczyce, Bieńczyckie;Planty Bieńczyckie, Bieńczyce, Kraków, województwo małopolskie, 31-845, Polska;(50.08937935, 20.011360169078962, 0.0);50.08937935;20.011360169078962;0.0;POINT (572324.3890057355 247392.7915977798)
63;Nowy apartament 89m2 ul. Stelmachów 238m2 ogródka;Kraków , Prądnik Biały, Bronowice Wielkie;4 pokoje;747000.0;89.0;8393.0;https://www.otodom.pl/oferta/nowy-apartament-89m2-ul-stelmachow-238m2-ogrodka-ID44Kfm.html#e7b1ebfb0e;2020-02-18 17:24:41.328667;Stelmachów;Kraków , Prądnik Biały, Bronowice Wielkie, Stelmachów;Stelmachów, Bronowice Wielkie, Prądnik Biały, Kraków, województwo małopolskie, 31-341, Polska;(50.0957664, 19.9055908, 0.0);50.0957664;19.9055908;0.0;POINT (564752.118985843 248005.6528973095)
64;Nowe mieszkanie ul. Stelmachów;Kraków , Prądnik Biały, Bronowice Wielkie;2 pokoje;368000.0;45.0;8178.0;https://www.otodom.pl/oferta/nowe-mieszkanie-ul-stelmachow-ID44KeO.html#e7b1ebfb0e;2020-02-18 17:24:41.328667;Stelmachów;Kraków , Prądnik Biały, Bronowice Wielkie, Stelmachów;Stelmachów, Bronowice Wielkie, Prądnik Biały, Kraków, województwo małopolskie, 31-341, Polska;(50.0957664, 19.9055908, 0.0);50.0957664;19.9055908;0.0;POINT (564752.118985843 248005.6528973095)
70;3 Pok + 2 msc Postojowe w Zielonkach / Duży Ogród;Kraków , małopolskie;3 pokoje;515000.0;55.0;9364.0;https://www.otodom.pl/oferta/3-pok-2-msc-postojowe-w-zielonkach-duzy-ogrod-ID44Kc1.html#e7b1ebfb0e;2020-02-18 17:24:41.328667;Zielona;Kraków , małopolskie, Zielona;Zielona, Wola Duchacka, Podgórze Duchackie, Delegatura Kraków-Podgórze, Kraków, województwo małopolskie, 30-623, Polska;(50.020073, 19.9496437, 0.0);50.020073;19.9496437;0.0;POINT (568008.8891458645 239631.4810384214)
71;Zyblikiewicza, 51m2, 3 pok+kuchnia, pod inwestycję;Kraków , Stare Miasto;3 pokoje;689000.0;51.0;13510.0;https://www.otodom.pl/oferta/zyblikiewicza-51m2-3-pok-kuchnia-pod-inwestycje-ID44KbR.html#e7b1ebfb0e;2020-02-18 17:24:41.328667;Zyblikiewicza;Kraków , Stare Miasto, Zyblikiewicza;Mikołaja Zyblikiewicza, Wesoła, Stare Miasto, Kraków, województwo małopolskie, 31-029, Polska;(50.0598154, 19.9456695, 0.0);50.0598154;19.9456695;0.0;POINT (567668.3918045387 244045.2151152072)
72;Opatkowice, 4 pokoje, Nowe;Kraków , Swoszowice, Opatkowice;4 pokoje;452000.0;66.45;6802.0;https://www.otodom.pl/oferta/opatkowice-4-pokoje-nowe-ID44Kbi.html#e7b1ebfb0e;2020-02-18 17:24:41.328667;Opatkowicka;Kraków , Swoszowice, Opatkowice, Opatkowicka;Opatkowicka, Opatkowice, Swoszowice, Kraków, województwo małopolskie, 30-499, Polska;(49.9836953, 19.9160164, 0.0);49.9836953;19.9160164;0.0;POINT (565650.2256588747 235558.0975218732)
76;Jedyne takie mieszkanie! Prądnik Czerwony;Kraków , Prądnik Czerwony;3 pokoje;470859.0;50.63;9300.0;https://www.otodom.pl/oferta/jedyne-takie-mieszkanie-pradnik-czerwony-ID44K9l.html#e7b1ebfb0e;2020-02-18 17:24:41.328667;Prądnika;Kraków , Prądnik Czerwony, Prądnika;Enklawa Prądnika, Prądnik Czerwony, Kraków, województwo małopolskie, Polska;(50.0933468, 19.98679355896063, 0.0);50.0933468;19.98679355896063;0.0;POINT (570561.7860403393 247810.2744327188)
77;Jedyne takie mieszkanie! Prądnik Czerwony;Kraków , Prądnik Czerwony;2 pokoje;404640.0;42.15;9600.0;https://www.otodom.pl/oferta/jedyne-takie-mieszkanie-pradnik-czerwony-ID44K9k.html#e7b1ebfb0e;2020-02-18 17:24:41.328667;Prądnika;Kraków , Prądnik Czerwony, Prądnika;Enklawa Prądnika, Prądnik Czerwony, Kraków, województwo małopolskie, Polska;(50.0933468, 19.98679355896063, 0.0);50.0933468;19.98679355896063;0.0;POINT (570561.7860403393 247810.2744327188)
78;Prądnik Czerwony, jedyne tkaie mieszkanie!;Kraków , Prądnik Czerwony;4 pokoje;930690.0;103.41;9000.0;https://www.otodom.pl/oferta/pradnik-czerwony-jedyne-tkaie-mieszkanie-ID44K9j.html#e7b1ebfb0e;2020-02-18 17:24:41.328667;Prądnika;Kraków , Prądnik Czerwony, Prądnika;Enklawa Prądnika, Prądnik Czerwony, Kraków, województwo małopolskie, Polska;(50.0933468, 19.98679355896063, 0.0);50.0933468;19.98679355896063;0.0;POINT (570561.7860403393 247810.2744327188)
79;Przestronne mieszkanie na Prądniku Białym;Kraków , Prądnik Biały;3 pokoje;560000.0;56.5;9912.0;https://www.otodom.pl/oferta/przestronne-mieszkanie-na-pradniku-bialym-ID44K91.html#e7b1ebfb0e;2020-02-18 17:24:41.328667;Prądnika;Kraków , Prądnik Biały, Prądnika;Prądnik Biały, Kraków, województwo małopolskie, Polska;(50.0955225, 19.9283169, 0.0);50.0955225;19.9283169;0.0;POINT (566377.4070532473 247998.4942823648)
80;Kraków Krowodrza ul. Mazowiecka - 52m 3pok+Balkon;Kraków , Krowodrza;3 pokoje;483600.0;52.0;9300.0;https://www.otodom.pl/oferta/krakow-krowodrza-ul-mazowiecka-52m-3pok-balkon-ID44K90.html#e7b1ebfb0e;2020-02-18 17:24:41.328667;Mazowiecka;Kraków , Krowodrza, Mazowiecka;Mazowiecka, Nowa Wieś, Krowodrza, Kraków, województwo małopolskie, 30-015, Polska;(50.0741152, 19.9291891, 0.0);50.0741152;19.9291891;0.0;POINT (566469.3704988041 245619.8426204808)
